AIRO_ID,Roll_No,Off_Name,Add_1,Add_2,Add_3,Add_4,County,Ethos,Island,DEIS,Gaeltacht,M_13_14,F_13_14,T_13_14,xcoord,ycoord,Long,Lat,Sex
1,00651R,BORRIS MXD N S,BORRIS,CO CARLOW,,,Carlow,CATHOLIC,N,N,N,100,94,194,273199.0,150324.0,-6.919560000000001,52.5993,Mixed
2,00977B,BALLYCONNELL N S,Ballyconnell,Tullow,Co Carlow,,Carlow,CATHOLIC,N,N,N,80,79,159,292481.0,174367.0,-6.62828,52.8124,Mixed
3,01116A,BAILE AN CHUILINN N S,MUINEBEAG,CO CARLOW,,,Carlow,CATHOLIC,N,N,N,56,55,111,272463.0,155784.0,-6.9292300000000004,52.6485,Mixed
4,01215C,NEWTOWN DUNLECKNEY MXD,MUINEBEAG,CO CARLOW,,,Carlow,CATHOLIC,N,N,N,69,61,130,275959.0,164072.0,-6.8756699999999995,52.7225,Mixed
5,01415K,RATHOE NS,RATHOE,CO CARLOW,,,Carlow,CATHOLIC,N,N,N,92,86,178,281027.0,171359.0,-6.79887,52.7872,Mixed
6,02124E,SCOIL NAIS MOLAISE,OLD LEIGHLIN,VIA BILBOA,CO CARLOW,,Carlow,CATHOLIC,N,N,N,74,66,140,265307.0,165801.0,-7.03297,52.7394,Mixed
7,04077I,SCOIL NAIS BHRIDE,GRANGE,TULLOW,CO CARLOW,,Carlow,CATHOLIC,N,N,N,88,71,159,282120.0,176948.0,-6.78127,52.8373,Mixed
8,09320Q,SCOIL NAIS MHUIRE,DROIMFEIGH,BAGENALSTOWN,CO CARLOW,,Carlow,CATHOLIC,N,N,N,53,47,100,278553.0,156943.0,-6.83898,52.6581,Mixed
9,11135K,ST MARYS N S,MUINEBEAG,CO CARLOW,,,Carlow,CHURCH OF IRELAND,N,N,N,39,41,80,270371.0,161495.0,-6.95892,52.7001,Mixed
10,13105L,ST BRIDGETS MONASTERY,MUINEBEAG,CO CARLOW,,,Carlow,CATHOLIC,N,N,N,116,1,117,270696.0,161495.0,-6.954110000000001,52.7,Mixed
11,13507I,S N MUIRE LOURDES,TULLOW,CO CARLOW,,,Carlow,CATHOLIC,N,N,N,0,217,217,285444.0,172887.0,-6.73301,52.8003,Female
12,13607M,ST COLUMBAS N S,TULLOW,CO CARLOW,,,Carlow,CHURCH OF IRELAND,N,N,N,30,35,65,285514.0,173275.0,-6.73187,52.8037,Mixed
13,14837L,S N PEADAR AGUS POL,BALLON,CO CARLOW,,,Carlow,CATHOLIC,N,N,N,142,139,281,283204.0,165930.0,-6.7679800000000006,52.7381,Mixed
14,16080N,S N PHADRAIG NAOFA,PATRICIAN BROTHERS,TULLOW,CO CARLOW,,Carlow,CATHOLIC,N,N,N,229,0,229,285520.0,173189.0,-6.7318,52.803000000000004,Male
15,16938E,FR CULLEN MEMORIAL N S,TINRYLAND,CO CARLOW,,,Carlow,CATHOLIC,N,N,N,81,89,170,274499.0,172123.0,-6.89544,52.795,Mixed
16,17053P,BISHOP FOLEY MEMORIAL SCHOOL,Station Road,Co Carlow,,,Carlow,CATHOLIC,N,N,N,268,0,268,272512.0,177195.0,-6.923769999999999,52.8409,Male
17,17096K,S N NMH FHINGIN,GARRYHILL,MUINEBHEAG,CO CARLOW,,Carlow,CATHOLIC,N,Y,N,21,12,33,277649.0,159052.0,-6.851839999999999,52.6771,Mixed
18,17127S,ST JOSEPHS NS,HACKETSTOWN,CO CARLOW,,,Carlow,CATHOLIC,N,Y,N,73,73,146,297277.0,180092.0,-6.555460000000001,52.863,Mixed
19,17330P,SCOIL N MOLING-GLYNN,ST MULLINS,KILKENNY,,,Carlow,CATHOLIC,N,N,N,21,36,57,274201.0,139477.0,-6.9072,52.5017,Mixed
20,17462J,SCOIL NAIS MHICHIL,BAILE NUA,BORRIS,CO CARLOW,,Carlow,CATHOLIC,N,N,N,26,21,47,274418.0,144438.0,-6.9029,52.5463,Mixed
21,17481N,ST BRENDANS N S,DRUMMOND,ST MULLINS,KILKENNY,,Carlow,CATHOLIC,N,N,N,12,8,20,274710.0,136225.0,-6.90043,52.4724,Mixed
22,17501Q,Bennekerry National School,Bennekerry,Co Carlow,,,Carlow,CATHOLIC,N,N,N,200,199,399,276212.0,176121.0,-6.86912,52.8307,Mixed
23,17514C,S N CLUAIN NA GALL,CLONEGAL,ENNISCORTHY,CO WEXFORD,,Carlow,CATHOLIC,N,N,N,62,55,117,291401.0,161388.0,-6.64791,52.696000000000005,Mixed
24,17663T,ST PATRICKS N S,RATHVILLY,CO CARLOW,,,Carlow,CATHOLIC,N,N,N,96,95,191,288216.0,181805.0,-6.68951,52.8799,Mixed
25,17669I,S N TREASA NAOMHA,CILL TEAGAIN,CO CILLE MANNTAIN,,,Carlow,CATHOLIC,N,Y,N,32,33,65,293017.0,183185.0,-6.61781,52.8915,Mixed
26,17756D,BALLINABRANNA MXD N S,MILFORD,CO CARLOW,,,Carlow,CATHOLIC,N,N,N,83,85,168,268668.0,170962.0,-6.982130000000001,52.7854,Mixed
27,17796P,Our Lady's National School,Nurney,Carlow,Co Carlow,,Carlow,CATHOLIC,N,N,N,22,22,44,273518.0,166934.0,-6.91115,52.7485,Mixed
28,17994T,S N FHOIRTCHEIRN/FHININ,MIDHISEAL,CO CEATHARLACH,,,Carlow,CATHOLIC,N,N,N,60,63,123,282544.0,160140.0,-6.779210000000001,52.6862,Mixed
29,18024N,SCOIL MUIRE GAN SMAL,ARD AITINN,CO CEATHARLACH,,,Carlow,CATHOLIC,N,N,N,45,36,81,287428.0,167987.0,-6.704910000000001,52.7559,Mixed
30,18090D,S N CILL DAMHAIN,CILL DAMHAIN,INIS CORTHAIGH,CO LOCH GORMAN,,Carlow,CATHOLIC,N,N,N,52,47,99,288933.0,160048.0,-6.684769999999999,52.6844,Mixed
31,18183K,QUEEN OF UNIVERSE N S,MUINEBHEAG,CO CARLOW,,,Carlow,CATHOLIC,N,N,N,94,187,281,270129.0,161621.0,-6.96247,52.7012,Mixed
32,18363M,S N MUIRE GAN SMAL,GREEN LANE,CARLOW,,,Carlow,CATHOLIC,N,N,N,0,439,439,272633.0,176860.0,-6.92205,52.8378,Female
33,18424G,SCOIL NAIS IOSEF NAOFA,CARLOW,CO CARLOW,,,Carlow,CATHOLIC,N,N,N,164,1,165,272598.0,176948.0,-6.92255,52.8386,Mixed
34,18510W,St Patrick's National School,Ballymurphy,Borris,Co Carlow (via Kilkenny),,Carlow,CATHOLIC,N,N,N,24,27,51,277310.0,147230.0,-6.85962,52.571000000000005,Mixed
35,18609S,S N FIONTAIN NAOFA,RATHMORE,TULLOW,CO CARLOW,,Carlow,CATHOLIC,N,N,N,13,14,27,285279.0,179321.0,-6.73378,52.8581,Mixed
36,18615N,S N CEATHARLACH,GREEN ROAD,CARLOW,,,Carlow,CHURCH OF IRELAND,N,N,N,73,59,132,271992.0,175585.0,-6.93185,52.8265,Mixed
37,19477J,HOLY FAMILY B N S,ASKEA,CARLOW,CO CARLOW,,Carlow,CATHOLIC,N,Y,N,385,0,385,273297.0,176670.0,-6.91224,52.836000000000006,Male
38,19478L,Holy Family Girls N S,ASKEA,CARLOW,CO CARLOW,,Carlow,CATHOLIC,N,Y,N,0,371,371,273325.0,176589.0,-6.91185,52.8353,Female
39,19784S,ST LASERIANS MXD NS,LEIGHLINBRIDGE,CO CARLOW,,,Carlow,CATHOLIC,N,N,N,95,83,178,269499.0,165370.0,-6.971,52.735,Mixed
40,19811S,GAELSCOIL EOGHAIN UÍ THUAIRISC,Garrán na Fuinseoige,Ceatharlach,,,Carlow,CATHOLIC,N,N,N,219,260,479,273395.0,175932.0,-6.91096,52.8294,Mixed
41,19958C,S.N. NAOMH FHIACH,GRAIGUECULLEN,CO CARLOW,,,Carlow,CATHOLIC,N,N,N,268,248,516,271106.0,176780.0,-6.94473,52.8373,Mixed
42,20295K,Carlow Educate Together NS,Bestfield,Athy Road,Carlow Town,Carlow,Carlow,MULTI DENOMINATIONAL,N,Y,N,99,77,176,270598.0,177131.0,-6.952189999999999,52.8405,Mixed
43,01356U,KILNALECK MIXED N S,KILNALECK,CO CAVAN,,,Cavan,CATHOLIC,N,Y,N,40,31,71,244694.0,290228.0,-7.32065,53.8595,Mixed
44,05627W,BAILIEBORO MODEL N S,BAILIEBORO,CO CAVAN,,,Cavan,CHURCH OF IRELAND,N,N,N,52,37,89,267435.0,296887.0,-6.97357,53.9169,Mixed
45,06998Q,St Patrick's NS,Corlough,Belturbet,C/O Belturbet Post Office,Co. Cavan,Cavan,CATHOLIC,N,Y,N,25,19,44,213643.0,318831.0,-7.791339999999999,54.1183,Mixed
46,08143P,S N MHUIRE,MUILEANN LARAINN,SWANLINBAR,CO CAVAN,,Cavan,CATHOLIC,N,Y,N,32,28,60,219258.0,326916.0,-7.70495,54.1908,Mixed
47,08453H,S N CRUABANAI,CRUABANAI,CO CAVAN,,,Cavan,CATHOLIC,N,N,N,88,69,157,244571.0,301985.0,-7.320810000000001,53.9652,Mixed
48,08490N,ST CLARES PRIMARY SCHOOL,CAVAN,CO CAVAN,,,Cavan,CATHOLIC,N,Y,N,115,384,499,242225.0,304903.0,-7.35615,53.9916,Mixed
49,08948L,MILLTOWN N S,BELTURBET,CO CAVAN,,,Cavan,CATHOLIC,N,N,N,58,47,105,234408.0,312922.0,-7.47443,54.0642,Mixed
50,10146K,CORLISS N S,KILLESHANDRA,CO CAVAN,,,Cavan,CATHOLIC,N,N,N,7,17,24,233039.0,302950.0,-7.49642,53.9747,Mixed
51,11205F,KILLESHANDRA National School ( C of I),KILLESHANDRA,CO CAVAN,,,Cavan,CHURCH OF IRELAND,N,N,N,33,29,62,230978.0,307164.0,-7.527410000000001,54.0127,Mixed
52,11409V,BALLYCONELL CENTRAL N S,BALLYCONNELL,CO CAVAN,,,Cavan,CHURCH OF IRELAND,N,N,N,19,11,30,227006.0,318767.0,-7.58697,54.1172,Mixed
53,11517B,CAVAN 1 N S,CAVAN,CO CAVAN,,,Cavan,CHURCH OF IRELAND,N,N,N,38,41,79,241842.0,304726.0,-7.362019999999999,53.99,Mixed
54,11541V,DROMAILI S N,CAVAN,CO CAVAN,,,Cavan,CATHOLIC,N,N,N,134,104,238,240443.0,306138.0,-7.38316,54.0028,Mixed
55,12099O,BILLIS N S,NEW INN,BALLYJAMESDUFF,CO CAVAN,,Cavan,CHURCH OF IRELAND,N,N,N,45,46,91,256245.0,293373.0,-7.14452,53.8867,Mixed
56,12312L,DARLEY N S,COOTEHILL,CO CAVAN,,,Cavan,CHURCH OF IRELAND,N,N,N,45,38,83,259843.0,314487.0,-7.085660000000001,54.076,Mixed
57,12713G,CORRATOBER N S,ARVA,CO CAVAN,,,Cavan,CATHOLIC,N,N,N,10,8,18,229273.0,294729.0,-7.55461,53.9011,Mixed
58,13203L,ST PATRICKS MXD N S,GOWNA,CO CAVAN,,,Cavan,CATHOLIC,N,N,N,56,48,104,230665.0,291702.0,-7.533739999999999,53.8738,Mixed
59,13271F,FAIRGREEN N S,BELTURBET,CO CAVAN,,,Cavan,CHURCH OF IRELAND,N,N,N,26,16,42,236445.0,316779.0,-7.44285,54.0987,Mixed
60,14073G,CASTLETARA N S,BALLYHAISE,CO CAVAN,,,Cavan,CATHOLIC,N,N,N,73,48,121,246504.0,309267.0,-7.29024,54.0304,Mixed
61,14211P,S N LATHRACH 2,KINGSCOURT,CO CAVAN,,,Cavan,CATHOLIC,N,N,N,66,54,120,274865.0,295421.0,-6.860860000000001,53.9027,Mixed
62,14320U,CORLEA N S,KINGSCOURT,CO CAVAN,,,Cavan,CATHOLIC,N,N,N,16,10,26,274039.0,300029.0,-6.872310000000001,53.9442,Mixed
63,14336M,SEARCOG I N S,SHERCOCK,VIA DUNDALK,CO CAVAN,,Cavan,CATHOLIC,N,N,N,86,97,183,272663.0,305342.0,-6.892,53.9922,Mixed
64,14399N,KILLYGARRY N S,KILLYGARRY,CO CAVAN,,,Cavan,CATHOLIC,N,N,N,95,95,190,245599.0,304329.0,-7.30479,53.9862,Mixed
65,14732U,SCOIL BHRIDE,MOUNTNUGENT,CO CAVAN,,,Cavan,CATHOLIC,N,N,N,56,73,129,249231.0,285300.0,-7.25248,53.8149,Mixed
66,15120R,KILLYCONNAN N S,STRADONE,CO CAVAN,,,Cavan,CATHOLIC,N,N,N,47,47,94,248761.0,301767.0,-7.257000000000001,53.9629,Mixed
67,15452T,KILDALLON N S,ARDLOUGHER,BELTURBET,CO CAVAN,,Cavan,CATHOLIC,N,N,N,25,27,52,229472.0,313032.0,-7.549810000000001,54.0655,Mixed
68,15502I,KILLINKERE N S,VIRGINIA,CO CAVAN,,,Cavan,CATHOLIC,N,N,N,91,95,186,261279.0,293362.0,-7.06796,53.886,Mixed
69,16057S,CONVENT OF MERCY N S,BELTURBET,CO CAVAN,,,Cavan,CATHOLIC,N,N,N,34,116,150,236262.0,316964.0,-7.44563,54.1004,Mixed
70,16083T,VIRGINIA MXD N S,VIRGINIA,CO CAVAN,,,Cavan,CATHOLIC,N,N,N,203,181,384,260905.0,287700.0,-7.07477,53.8352,Mixed
71,16093W,BALLYCONNELL MXD N S,BALLYCONNELL,CO CAVAN,,,Cavan,CATHOLIC,N,N,N,70,63,133,227405.0,318357.0,-7.5809,54.1135,Mixed
72,16316Q,ST MARYS N S,ARVA,CO CAVAN,,,Cavan,CATHOLIC,N,N,N,62,56,118,227583.0,296978.0,-7.58012,53.9214,Mixed
73,16390F,SCOIL BHRIDE,KILLSHANDRA,CO CAVAN,,,Cavan,CATHOLIC,N,N,N,46,42,88,231118.0,306486.0,-7.525339999999999,54.0066,Mixed
74,16520P,ST MARY'S N.S.,DRUNG,BALLYHAISE,CO CAVAN,,Cavan,CATHOLIC,N,N,N,24,32,56,250944.0,310589.0,-7.22226,54.0419,Mixed
75,16767D,CORONEA N S,ARVA,CO CAVAN,,,Cavan,CATHOLIC,N,N,N,17,15,32,231340.0,298854.0,-7.52274,53.938,Mixed
76,16921K,S N BEAL ATHA NA NEACH,BALLINAGH,CO CAVAN,,,Cavan,CATHOLIC,N,N,N,115,104,219,238579.0,298192.0,-7.41259,53.9316,Mixed
77,16959M,S N CORRABHA,GLANGEVLIN N S,CARRICK ON SHANNON,CO LEITRIM,,Cavan,CATHOLIC,N,N,N,12,11,23,204966.0,327372.0,-7.92391,54.1952,Mixed
78,17230L,SCOIL NAOMH BRID,"CILL UACHTAIR,","AN CNOC RUA,",CO. AN CHABHAIN.,,Cavan,CATHOLIC,N,N,N,40,36,76,244914.0,315374.0,-7.3136,54.0855,Mixed
79,17240O,S N TAMHNACH DHUIBH,BAILIEBORO,CO CAVAN,,,Cavan,CATHOLIC,N,N,N,51,38,89,261808.0,301526.0,-7.058269999999999,53.9593,Mixed
80,17326B,S N NAOMH FEIDHLIM,CAVAN,CO CAVAN,,,Cavan,CATHOLIC,N,Y,N,224,3,227,241791.0,304810.0,-7.36278,53.9908,Mixed
81,17440W,S N NAOMH MAODHOG,CILL NA BHEART,BEAL ATHA CONAILL,CO CAVAN,,Cavan,CATHOLIC,N,N,N,50,29,79,223896.0,315804.0,-7.63477,54.0907,Mixed
82,17479D,SCOIL MHUIRE,LACKEN,BALLINAGH,CO CAVAN,,Cavan,CATHOLIC,N,Y,N,47,45,92,236935.0,296511.0,-7.437819999999999,53.9166,Mixed
83,17531C,BAILE NA MONA,BAILIEBORO,CO CAVAN,,,Cavan,CATHOLIC,N,N,N,59,51,110,268864.0,294673.0,-6.952319999999999,53.8968,Mixed
84,17601U,S N DOIRE NA CEISE,AN MHUINCHILLE,CO CAVAN,,,Cavan,CATHOLIC,N,N,N,60,85,145,262881.0,309410.0,-7.0403,54.03,Mixed
85,17625L,CNOC AN TEAMPAILL,VIRGINIA,CO CAVAN,,,Cavan,CATHOLIC,N,N,N,97,75,172,260114.0,284158.0,-7.08748,53.8035,Mixed
86,17630E,S N MAODHOG,CNOC BRIGHDE,BAILIEBORO,CO CAVAN,,Cavan,CATHOLIC,N,N,N,24,22,46,265998.0,304733.0,-6.99375,53.9876,Mixed
87,17780A,BALLYHAISE N S,CAVAN,CO CAVAN,,,Cavan,CATHOLIC,N,N,N,62,71,133,244623.0,310845.0,-7.31872,54.0448,Mixed
88,17990L,S N DROM CNAMH,DROM CNAMH,CO CAVAN,,,Cavan,CATHOLIC,N,N,N,24,17,41,244417.0,305505.0,-7.32264,53.9968,Mixed
89,18059J,BAILIEBORO N S,BAILIEBORO,CO CAVAN,,,Cavan,CATHOLIC,N,N,N,135,142,277,267409.0,296758.0,-6.974,53.9158,Mixed
90,18127A,S N MHUIRE,BELTURBET,CO CAVAN,,,Cavan,CATHOLIC,N,N,N,74,0,74,236465.0,316694.0,-7.44256,54.098,Male
91,18340A,S N PADRAIG,LIOS BO DUIBHE,AN MHUINCHILLE,CO CAVAN,,Cavan,CATHOLIC,N,N,N,27,21,48,250734.0,313983.0,-7.2249,54.0724,Mixed
92,18346M,S N GREACH RATHAIN,BEAL TAIRBEIRT,CO CAVAN,,,Cavan,CATHOLIC,N,N,N,30,31,61,230560.0,316646.0,-7.532830000000001,54.0979,Mixed
93,18355N,KNOCKNAGILLA N S,AN SRAITH DOIMHIN,CO CAVAN,,,Cavan,CATHOLIC,N,N,N,57,52,109,251287.0,298652.0,-7.21904,53.9346,Mixed
94,18393V,S N CILLIN,CROS RIABHACH,MULLACH,CEANNANUS MOR,CO NA MI,Cavan,CATHOLIC,N,N,N,44,27,71,265046.0,289851.0,-7.011419999999999,53.854,Mixed
95,18518P,S N CORR LORGAN,CABHAN,CO CAVAN,,,Cavan,CATHOLIC,N,N,N,56,40,96,242151.0,301420.0,-7.357760000000001,53.9603,Mixed
96,18564W,S N LEITIR,CILL CATHLAIGH,CO CAVAN,,,Cavan,CATHOLIC,N,N,N,84,92,176,264986.0,298015.0,-7.0106,53.9274,Mixed
97,18833A,S N LATHRACH,LATHRACH,SRAITH AN DOMHAIN,CO AN CHABHAIN,,Cavan,CATHOLIC,N,N,N,59,64,123,251480.0,305159.0,-7.215,53.9931,Mixed
98,18857O,S N CARRAIG A BRUIS,VIRGINIA,CO CAVAN,,,Cavan,CATHOLIC,N,N,N,64,72,136,263800.0,284012.0,-7.031569999999999,53.8017,Mixed
99,19202Q,DRUMKILLY NS,KILNALECK,CO CAVAN,,,Cavan,CATHOLIC,N,N,N,58,67,125,243237.0,293637.0,-7.34232,53.8903,Mixed
100,19285A,KILL N S,COOTEHILL,CO CAVAN,,,Cavan,CATHOLIC,N,N,N,29,35,64,257828.0,310006.0,-7.11729,54.0359,Mixed
101,19322D,KILMORE CENTRAL N S,KILMORE CENTRAL N S,KILMORE,CO CAVAN,,Cavan,CHURCH OF IRELAND,N,N,N,37,21,58,238064.0,302676.0,-7.4198699999999995,53.9719,Mixed
102,19326L,BUTLERSBRIDGE NS,CAVAN,CO CAVAN,,,Cavan,CATHOLIC,N,N,N,93,93,186,240920.0,310927.0,-7.37524,54.0458,Mixed
103,19363R,MULLAHORAN CENTRAL N S,KILCOGY,VIA LONGFORD,CO CAVAN,,Cavan,CATHOLIC,N,Y,N,68,82,150,237295.0,287887.0,-7.433389999999999,53.8391,Mixed
104,19378H,BALLYNARRY N S,BALLYHEELAN,KILNALECK,CO CAVAN,,Cavan,CATHOLIC,N,N,N,55,34,89,242963.0,287741.0,-7.34731,53.8374,Mixed
105,19418Q,CASTLERAHAN CENTRAL NS,CASTLERAHAN,BALLYJAMESDUFF,CO CAVAN,,Cavan,CATHOLIC,N,N,N,73,81,154,254065.0,286013.0,-7.17897,53.8208,Mixed
106,19432K,CROSSKEYS CENTRAL N S,CROSSKEYS,CO CAVAN,,,Cavan,CATHOLIC,N,N,N,59,71,130,248382.0,296933.0,-7.263539999999999,53.9195,Mixed
107,19527V,CABRA CENTRAL N S,CABRA,KINGSCOURT,CO CAVAN,,Cavan,CHURCH OF IRELAND,N,N,N,25,35,60,278127.0,297437.0,-6.81073,53.9204,Mixed
108,19568M,ST PATRICKS,BRUSKEY CARRIGANS PO,BALLINAGH,CO CAVAN,,Cavan,CATHOLIC,N,N,N,24,33,57,238996.0,293077.0,-7.40689,53.8856,Mixed
109,19596R,CROSSERLOUGH N S,CROSSERLOUGH,CO. CAVAN,,,Cavan,CATHOLIC,N,N,N,56,67,123,246884.0,292072.0,-7.2870800000000004,53.8759,Mixed
110,19608V,ST KILLIANS N S,MULLAGH,CO CAVAN,,,Cavan,CATHOLIC,N,N,N,196,172,368,268884.0,285304.0,-6.95412,53.8127,Mixed
111,19679V,S N AODHAIN NAOFA,AN BABHUN BUI,BEAL TAIRBIRT,CO AN CHABHAIN,,Cavan,CATHOLIC,N,N,N,42,21,63,221077.0,318868.0,-7.677639999999999,54.1184,Mixed
112,19871N,ST PATRICKS N S,KILLINAGH,BLACKLION  VIA SLIGO,CO CAVAN,,Cavan,CATHOLIC,N,N,N,34,37,71,205536.0,337352.0,-7.9149899999999995,54.2849,Mixed
113,19921C,DRUNG NO 2 NS,DRUNG,CO CAVAN,,,Cavan,CHURCH OF IRELAND,N,N,N,19,17,36,250303.0,310718.0,-7.23203,54.0431,Mixed
114,19983B,ST CLARES NS,BALLYJAMESDUFF,CO CAVAN,,,Cavan,CATHOLIC,N,N,N,212,222,434,252725.0,290999.0,-7.198460000000001,53.8657,Mixed
115,20026G,Gaelscoil Bhreifne,Halla na nGasóga,Bóthar an Iarnróid,An Cábhán,,Cavan,MULTI DENOMINATIONAL,N,N,N,18,10,28,241656.0,304884.0,-7.36483,53.9915,Mixed
116,20134J,ST MICHAELS N. S.,STRADONE,CAVAN,CO  CAVAN,,Cavan,CATHOLIC,N,N,N,36,30,66,254140.0,301451.0,-7.1751,53.9595,Mixed
117,20172R,ST JOSEPHS N S,KINGSCOURT,CO CAVAN,,,Cavan,CATHOLIC,N,N,N,217,179,396,278597.0,295309.0,-6.804119999999999,53.9012,Mixed
118,20277I,St Michaels National School,Cootehill,Co Cavan,,,Cavan,CATHOLIC,N,Y,N,109,77,186,260627.0,314280.0,-7.07372,54.074,Mixed
119,02439G,S N MHUIRE,FEAKLE,CO CLARE,,,Clare,CATHOLIC,N,N,N,34,35,69,156382.0,186087.0,-8.648610000000001,52.9239,Mixed
120,03898U,TOONAGH N S,TOONAGH,ENNIS,CO CLARE,,Clare,CATHOLIC,N,N,N,48,63,111,130426.0,182614.0,-9.03379,52.8899,Mixed
121,03928D,MULLACH N S,MULLACH,ENNIS,CO CLARE,,Clare,CATHOLIC,N,Y,N,27,31,58,104321.0,172978.0,-9.41874,52.7994,Mixed
122,04548V,SCOIL SEANAIN NAOFA,CLUAINLARA,CO AN CHLAIR,,,Clare,CATHOLIC,N,N,N,181,159,340,162600.0,163750.0,-8.5536,52.7236,Mixed
123,04919H,CRATLOE N S,CRATLOE,CO CLARE,,,Clare,CATHOLIC,N,N,N,124,147,271,148977.0,161133.0,-8.75482,52.699,Mixed
124,05253H,O CALLAGHANS MILLS N S,OCALLAGHANS MILLS,CO CLARE,,,Clare,CATHOLIC,N,N,N,25,35,60,154753.0,176784.0,-8.67154,52.8402,Mixed
125,07315N,HOLY FAMILY SNR,ENNIS,CO CLARE,,,Clare,CATHOLIC,N,Y,N,164,201,365,133925.0,177182.0,-8.9807,52.8416,Mixed
126,09390O,ROCKMOUNT MIXED N S,MILTOWN MALBAY,CO CLARE,,,Clare,CATHOLIC,N,N,N,28,21,49,109322.0,180570.0,-9.34671,52.8684,Mixed
127,09425H,RINEEN N S,MILTOWN MALBAY,CO CLARE,,,Clare,CATHOLIC,N,N,N,25,18,43,106561.0,183081.0,-9.38842,52.8905,Mixed
128,10568N,S N CUIBHREANN,CILL CHAOI,CO AN CHLAIR,,,Clare,CATHOLIC,N,N,N,11,9,20,91974.0,154947.0,-9.59582,52.6351,Mixed
129,10763L,BOSTON N S,TUBBER,GORT,CO GALWAY,,Clare,CATHOLIC,N,N,N,8,12,20,137472.0,198241.0,-8.93212,53.0312,Mixed
130,10886E,TUBBER N S,TUBBER,CO CLARE,,,Clare,CATHOLIC,N,N,N,9,11,20,140007.0,193609.0,-8.89348,52.9899,Mixed
131,11234M,CLOHANBEG N S,CREE,KILRUSH,CO. CLARE,,Clare,CATHOLIC,N,N,N,16,13,29,106196.0,168727.0,-9.38973,52.7615,Mixed
132,11714D,BANSHA N S,KILKEE,CO CLARE,,,Clare,CATHOLIC,N,N,N,34,22,56,92562.0,161860.0,-9.58939,52.6973,Mixed
133,11765U,DOONBEG N S,DOONBEG,CO CLARE,,,Clare,CATHOLIC,N,N,N,16,19,35,96773.0,165537.0,-9.52827,52.7311,Mixed
134,11990E,BODYKE N S,BODYKE,CO CLARE,,,Clare,CATHOLIC,N,N,N,14,10,24,159867.0,181450.0,-8.596219999999999,52.8825,Mixed
135,12633I,COOLMEEN N S,KILMURRAY MCMAHON,KILRUSH,CO CLARE,,Clare,CATHOLIC,N,N,N,7,9,16,117983.0,157176.0,-9.21226,52.6596,Mixed
136,12848G,DOONAHA N S,KILKEE,CO CLARE,,,Clare,CATHOLIC,N,Y,N,6,9,15,88457.0,153667.0,-9.64732,52.6228,Mixed
137,13379C,S N PADRAIG NFA FANOIR,BALLYVAUGHAN,CO CLARE,,,Clare,CATHOLIC,N,N,N,11,9,20,114077.0,208117.0,-9.283430000000001,53.1167,Mixed
138,13418J,BALLYEA MIXED N S,SN  BAILE AODHA,DARRAGH,ENNIS,CO CLARE,Clare,CATHOLIC,N,N,N,102,91,193,130579.0,170758.0,-9.02899,52.7834,Mixed
139,13478E,DROIMDIOGACH N S,KILLMURRY MC MAHON,CO CLARE,,,Clare,CATHOLIC,N,N,N,18,24,42,111316.0,157681.0,-9.31091,52.6631,Mixed
140,13625O,KILNAMONA N S,ENNIS,CO CLARE,,,Clare,CATHOLIC,N,N,N,66,49,115,127416.0,180168.0,-9.077960000000001,52.8676,Mixed
141,13730L,CLOHANES N S,MULLACH,CO CLARE,,,Clare,CATHOLIC,N,N,N,17,24,41,100424.0,169538.0,-9.47546,52.7678,Mixed
142,13738E,BURRANE N S,KILRUSH,CO CLARE,,,Clare,CATHOLIC,N,N,N,32,38,70,108057.0,153546.0,-9.35792,52.6254,Mixed
143,13804O,S N NA CRANNAIGHE,CRANNACH,CILL ROIS,CO CLARE,,Clare,CATHOLIC,N,N,N,12,14,26,117269.0,160895.0,-9.22375,52.6929,Mixed
144,13826B,KILMIHIL N.S.,KILMIHIL,ENNIS,CO CLARE,,Clare,CATHOLIC,N,N,N,54,50,104,110920.0,164290.0,-9.31855,52.7224,Mixed
145,13870E,KILKISHEN N S,SN MUIRE NA D CHOMHAIRL,CILL  CHISIN,ENNIS,CO CLARE,Clare,CATHOLIC,N,N,N,44,60,104,149964.0,172877.0,-8.74201,52.8046,Mixed
146,13876Q,MOVEEN N S,KILKEE,CO CLARE,,,Clare,CATHOLIC,N,N,N,35,34,69,86047.0,155978.0,-9.683689999999999,52.6431,Mixed
147,13942D,S N CILL MUIRE,INIS,CO CLARE,,,Clare,CATHOLIC,N,N,N,80,58,138,147218.0,169951.0,-8.78226,52.7781,Mixed
148,14111L,CROSS N S,KILRUSH,CO CLARE,,,Clare,CATHOLIC,N,N,N,12,13,25,79757.0,151179.0,-9.77484,52.5986,Mixed
149,14468G,KILMALEY N S,ENNIS,CO CLARE,,,Clare,CATHOLIC,N,N,N,61,64,125,125218.0,174911.0,-9.10939,52.82,Mixed
150,14571W,TOMGRANEY N S,TOMGRANEY,LIMERICK,,,Clare,CATHOLIC,N,N,N,46,48,94,163627.0,183100.0,-8.54055,52.8976,Mixed
151,14622N,EIDHNEACH N S,INIS,CO CLARE,,,Clare,CATHOLIC,N,N,N,81,56,137,120664.0,181338.0,-9.17849,52.8771,Mixed
152,14757N,S N MHAINISTIR CHUINCHE,QUIN,CO CLARE,,,Clare,CATHOLIC,N,N,N,131,141,272,142024.0,174341.0,-8.86001,52.817,Mixed
153,14830U,BAREFIELD MIXED N S,ENNIS,CO CLARE,,,Clare,CATHOLIC,N,N,N,205,179,384,136518.0,182572.0,-8.94327,52.8903,Mixed
154,15042A,ENNIS N S,ENNIS,CO CLARE,,,Clare,CATHOLIC,N,N,N,302,289,591,133520.0,177128.0,-8.9867,52.841,Mixed
155,15221A,ANNAGH N S,MILTOWN MALBAY,CO CLARE,,,Clare,CATHOLIC,N,Y,N,51,27,78,104696.0,175463.0,-9.4139,52.8218,Mixed
156,15279I,CLOONEY N S,CLOONEY NS,TULLA,ENNIS,CO CLARE,Clare,CATHOLIC,N,N,N,52,47,99,142037.0,180339.0,-8.86088,52.8709,Mixed
157,15301V,KILDYSART N S,ENNIS ROAD,KILDYSART,CO CLARE,,Clare,CATHOLIC,N,N,N,75,76,151,125446.0,159060.0,-9.1024,52.6776,Mixed
158,15350L,STONEHALL N S,NEWMARKET ON FERGUS,CO CLARE,,,Clare,CATHOLIC,N,N,N,55,55,110,138560.0,164136.0,-8.909469999999999,52.7249,Mixed
159,15370R,KILLALOE BOYS N S,KILLALOE,CO CLARE,,,Clare,CATHOLIC,N,N,N,118,0,118,170056.0,172640.0,-8.44405,52.803999999999995,Male
160,15408Q,CONNOLLY N S,ENNIS,CO CLARE,,,Clare,CATHOLIC,N,N,N,22,24,46,120460.0,176113.0,-9.18025,52.8302,Mixed
161,15981A,LAKYLE N S,WHITEGATE VIA LIMERICK,CO CLARE,,,Clare,CATHOLIC,N,N,N,26,26,52,175710.0,189185.0,-8.36144,52.9529,Mixed
162,16186G,INCH N S,ENNIS,CO CLARE,,,Clare,CATHOLIC,N,N,N,52,58,110,128691.0,175123.0,-9.05792,52.8224,Mixed
163,16677C,BUNSCOIL NA MBRAITHRE,ENNIS,CO CLARE,,,Clare,CATHOLIC,N,N,N,350,296,646,134191.0,177899.0,-8.9769,52.8481,Mixed
164,16908S,SIXMILEBRIDGE N S,ENNIS,CO CLARE,,,Clare,CATHOLIC,N,N,N,265,227,492,147472.0,166073.0,-8.77787,52.7432,Mixed
165,16930L,SCOIL AN SRAITH  S N,TULACH BRACH,CILL ROIS,CO AN CHLAIR,,Clare,CATHOLIC,N,N,N,15,7,22,99067.0,162414.0,-9.49337,52.7035,Mixed
166,16946D,SN AN PHAIRTIN MIXED,PARTEEN,CO LIMERICK,,,Clare,CATHOLIC,N,N,N,183,185,368,158470.0,160579.0,-8.61432,52.6948,Mixed
167,17020A,QUILTY NS,QUILTY,ENNIS,CO CLARE,,Clare,CATHOLIC,N,Y,N,23,23,46,101958.0,174237.0,-9.454139999999999,52.8103,Mixed
168,17026M,CLARECASTLE NATIONAL SCHOOL,INIS,CO CLARE,,,Clare,CATHOLIC,N,N,N,191,192,383,134620.0,174409.0,-8.96983,52.8167,Mixed
169,17246D,S N CLUAIN AN ATHA,EIDHNEACH,INIS,CO CLARE,,Clare,CATHOLIC,N,N,N,12,17,29,114292.0,180363.0,-9.27287,52.8674,Mixed
170,17270A,S N COLM CILLE,INIS DIOMAIN,CO CLARE,,,Clare,CATHOLIC,N,N,N,20,21,41,117387.0,187493.0,-9.22872,52.9319,Mixed
171,17517I,DOOLIN MIXED N S,ENNIS,CO CLARE,,,Clare,CATHOLIC,N,N,N,40,32,72,107975.0,196670.0,-9.37128,53.0129,Mixed
172,17563P,OGONNELLOE NATIONAL SCHOOL,OGONNELLOE,TUAMGRANEY,SCARIFF,CO CLARE,Clare,CATHOLIC,N,N,N,57,48,105,169181.0,180208.0,-8.45774,52.8719,Mixed
173,17583V,S N CNOC AN EIN,INIS,CO CLARE,,,Clare,CATHOLIC,N,N,N,136,142,278,137487.0,178553.0,-8.9281,52.8543,Mixed
174,17633K,S N EOIN BAISTE,BALLYVAUGHAN,VIA GALWAY,CO CLARE,,Clare,CATHOLIC,N,N,N,23,19,42,122761.0,207661.0,-9.15364,53.1139,Mixed
175,17687K,S N TULACH CRUINN,CILL RUIS,CO CLARE,,,Clare,CATHOLIC,N,N,N,13,5,18,108683.0,160790.0,-9.35069,52.6906,Mixed
176,17801F,S N NA MAIGHDINE MUIRE,BROADFORD,CO CLARE,,,Clare,CATHOLIC,N,N,N,67,58,125,157370.0,172678.0,-8.63217,52.8035,Mixed
177,17816S,COORACLARE B N S,CILL ROIS,CO CLARE,,,Clare,CATHOLIC,N,N,N,55,54,109,103970.0,162497.0,-9.420869999999999,52.7051,Mixed
178,17832Q,KILNABOY N S,ENNIS,CO CLARE,,,Clare,CATHOLIC,N,N,N,39,51,90,127533.0,191776.0,-9.07881,52.9719,Mixed
179,17847G,S N AIBHISTIN NAOFA,CILL SEANAIGH,INIS,CO AN CHLAIR,,Clare,CATHOLIC,N,N,N,16,13,29,112662.0,193284.0,-9.30054,52.9832,Mixed
180,17898A,S N IOSEP NAOFA,BROADFORD,VIA LIMERICK,CO CLARE,,Clare,CATHOLIC,N,N,N,4,2,6,161880.0,172745.0,-8.5653,52.8044,Mixed
181,17957N,ENNIS CONVENT INF N S,ENNIS,CO CLARE,,,Clare,CATHOLIC,N,Y,N,109,100,209,133938.0,177253.0,-8.98052,52.8422,Mixed
182,18032M,S N CLUAIN MUINGE,CLONMONEY,NEWMARKET-ON-FERGUS,CO CLARE,,Clare,CATHOLIC,N,N,N,79,72,151,143532.0,163113.0,-8.83571,52.7162,Mixed
183,18109V,S N INIS CEALTRACH,MOUNTSHANNON,CO. CLARE,VIA LIMERICK,,Clare,CATHOLIC,N,N,N,36,29,65,170355.0,186944.0,-8.44092,52.9325,Mixed
184,18168O,S N AN CHRIOCH,AN CHRIOCH,CO AN CHLAIR,,,Clare,CATHOLIC,N,N,N,16,25,41,103421.0,167136.0,-9.43036,52.7467,Mixed
185,18190H,S N CRONAIN NFA AN CARN,INIS,CO CLARE,,,Clare,CATHOLIC,N,N,N,9,12,21,127927.0,199076.0,-9.07457,53.0375,Mixed
186,18225A,S N MHUIRE MILIUC,LUIMNEACH,CO LUIMNI,,,Clare,CATHOLIC,N,N,N,75,73,148,154483.0,160813.0,-8.67333,52.6966,Mixed
187,18227E,SCOIL MHUIRE NAISIUNTA,CORA  FINNE,CO AN CHLAIR,,,Clare,CATHOLIC,N,N,N,65,68,133,128880.0,188753.0,-9.0581,52.9449,Mixed
188,18327I,S N CNOC DOIRE,COORACLARE,KILRUSH,CO CLARE,,Clare,CATHOLIC,N,N,N,15,13,28,105562.0,156861.0,-9.395710000000001,52.6548,Mixed
189,18339P,SN IOSEF NAOFA,AN MHAIGH,LEACHT UI CHONCHUBHAIR,INIS,CO AN CHLAIR,Clare,CATHOLIC,N,N,N,14,11,25,110421.0,184191.0,-9.331389999999999,52.9012,Mixed
190,18359V,S N CUAN,CILL BEATHACH,INIS,CO CLARE,,Clare,CATHOLIC,N,N,N,15,20,35,73562.0,148800.0,-9.86532,52.5759,Mixed
191,18410S,S N LIOSCEANUIR,INIS,CO CLARE,,,Clare,CATHOLIC,N,N,N,43,36,79,106244.0,188084.0,-9.39458,52.9354,Mixed
192,18467B,S N BAILE AN DROICHID,OBRIENS BRIDGE,LIMERICK,,,Clare,CATHOLIC,N,N,N,67,60,127,164632.0,167918.0,-8.52397,52.7612,Mixed
193,18526O,BALLYCAR N S,NEWMARKET ON FERGUS,CO CLARE,,,Clare,CATHOLIC,N,N,N,20,19,39,142462.0,168883.0,-8.85255,52.768,Mixed
194,18540I,CLUAIN DRAIGNEACH,CLUAIN DRAIGHNEACH,LIOS UI CHATASAI,INIS,CO AN CHLAIR,Clare,CATHOLIC,N,N,N,15,5,20,124466.0,165216.0,-9.118310000000001,52.7328,Mixed
195,18541K,S N CATHAIR AODHA,LISSYCASEY,ENNIS,CO CLARE,,Clare,CATHOLIC,N,N,N,21,16,37,125733.0,168932.0,-9.100389999999999,52.7664,Mixed
196,18555V,LISSYCASEY N S,ENNIS,CO CLARE,,,Clare,CATHOLIC,N,N,N,65,70,135,120550.0,165858.0,-9.17643,52.738,Mixed
197,18565B,S N MA SHEASTA,MOYASTA,CO CLARE,,,Clare,CATHOLIC,N,N,N,25,29,54,95904.0,158761.0,-9.53899,52.6701,Mixed
198,18624O,MERCY CONVENT KILLALOE,KILLALOE,CO CLARE,,,Clare,CATHOLIC,N,N,N,0,93,93,170299.0,172842.0,-8.44046,52.8058,Female
199,18630J,CARRIGAHOLT MIXED N S,CARRIGAHOLT,ENNIS,CO CLARE,,Clare,CATHOLIC,N,N,N,12,11,23,84278.0,151490.0,-9.70825,52.6024,Mixed
200,18639E,S N BAILE NA CAILLI,ENNIS,CO CLARE,,,Clare,CATHOLIC,N,N,N,45,59,104,128064.0,163581.0,-9.064689999999999,52.7186,Mixed
201,18696Q,S N DUBH RATH,CAISLEAN AN CHLAR,CO CLARE,,,Clare,CATHOLIC,N,N,N,50,41,91,138485.0,174664.0,-8.912560000000001,52.8195,Mixed
202,18720K,MILTOWN MALBAY B N S,MILTOWN MALBAY,CO CLARE,,,Clare,CATHOLIC,N,N,N,41,57,98,105559.0,178905.0,-9.4021,52.8528,Mixed
203,18739I,SHANNON AIRPORT 1 N S,SHANNON AIRPORT,CO CLARE,,,Clare,CATHOLIC,N,N,N,53,67,120,139860.0,161243.0,-8.8897,52.699,Mixed
204,18740Q,SHANNON AIRPORT NO 2 NS,SHANNON AIRPORT,CO CLARE,,,Clare,CHURCH OF IRELAND,N,N,N,13,2,15,139547.0,161329.0,-8.89435,52.6998,Mixed
205,18753C,SAINT MARYS N S LAHINCH,INIS,CO CLARE,,,Clare,CATHOLIC,N,N,N,75,76,151,109612.0,187289.0,-9.34427,52.9289,Mixed
206,18768P,FORGLEANN N S,FORGLEANN,LEACHT UI CHONCHUIR,CO AN CHLAIR,,Clare,CATHOLIC,N,N,N,24,17,41,114295.0,184855.0,-9.274,52.9078,Mixed
207,18846J,AN DAINGIN,TULLA,ENNIS,CO CLARE,,Clare,CATHOLIC,N,N,N,12,10,22,146166.0,175434.0,-8.79875,52.8272,Mixed
208,18950E,Dromindoora N.S.,CAHER,VIA LIMERICK,CO CLARE,,Clare,CATHOLIC,N,N,N,16,15,31,151620.0,194286.0,-8.72064,52.9972,Mixed
209,19043W,NEW QUAY NS,BURREN,CO CLARE,VIA GALWAY,,Clare,CATHOLIC,N,N,N,10,19,29,127860.0,211093.0,-9.07827,53.1455,Mixed
210,19274S,ST CONAIRES NS,SHANNON,CO CLARE,,,Clare,CATHOLIC,N,N,N,248,252,500,141205.0,161984.0,-8.86994,52.7059,Mixed
211,19338S,FLAGMOUNT CENTRAL NS,FLAGMOUNT CENTRAL NS,FLAGMOUNT,CAHER,CO CLARE,Clare,CATHOLIC,N,N,N,33,27,60,156691.0,192991.0,-8.64494,52.986000000000004,Mixed
212,19366A,SCARIFF CENTRAL N S,SCARIFF,CO CLARE,,,Clare,CATHOLIC,N,N,N,89,80,169,164280.0,185114.0,-8.53106,52.9157,Mixed
213,19386G,LABASHEEDA CENTRAL N S,LABASHEEDA,CO CLARE,,,Clare,CATHOLIC,N,N,N,6,11,17,115202.0,152986.0,-9.25228,52.6216,Mixed
214,19442N,RUAN CENTRAL NS,RUAN,ENNIS,CO CLARE,,Clare,CATHOLIC,N,N,N,57,54,111,133569.0,187411.0,-8.98807,52.9334,Mixed
215,19551S,INCHICRONAN CENTRAL NS,CRUSHEEN,CO CLARE,,,Clare,CATHOLIC,N,N,N,52,49,101,139943.0,187584.0,-8.893310000000001,52.9358,Mixed
216,19552U,NAOMH TOLA,SHANNON,CO CLARE,,,Clare,CATHOLIC,N,N,N,121,112,233,140154.0,161731.0,-8.88544,52.7035,Mixed
217,19559L,CHRIOST RI,CLOUGHLEIGH,ENNIS,CO CLARE,,Clare,CATHOLIC,N,Y,N,111,115,226,133158.0,177849.0,-8.99222,52.8475,Mixed
218,19698C,ST AIDANS NS,SMITHSTOWN,SHANNON,CO CLARE,,Clare,CATHOLIC,N,N,N,136,129,265,141646.0,162532.0,-8.86351,52.7108,Mixed
219,19700J,LISDOONVARNA N S,LISDOONVARNA,CO CLARE,,,Clare,CATHOLIC,N,N,N,55,57,112,113588.0,198564.0,-9.28817,53.0308,Mixed
220,19838P,GAEL SC MHICHIL CHIOSOG,INIS,CO AN CHLAIR,,,Clare,CATHOLIC,N,N,N,154,193,347,133978.0,178742.0,-8.98023,52.8556,Mixed
221,19849U,GAELSCOIL DONNCHA RUA,SIONNA,CO AN CHLAIR,,,Clare,CATHOLIC,N,N,N,37,41,78,140810.0,161932.0,-8.87577,52.7053,Mixed
222,19999Q,GAELSCOIL UI CHOIMIN,AN T-IONAD OIGE,CILL ROIS,CO AN CHLAIR,,Clare,CATHOLIC,N,N,N,27,41,68,99442.0,155320.0,-9.48565,52.6398,Mixed
223,20041C,CONVENT OF MERCY NATIONAL SCHOOL,KILRUSH,CO CLARE,,,Clare,CATHOLIC,N,Y,N,142,147,289,99377.0,155305.0,-9.48661,52.6397,Mixed
224,20075T,ST MOCHULLAS N.S.,ENNIS ROAD,TULLA,CO CLARE,,Clare,CATHOLIC,N,N,N,137,147,284,148739.0,179880.0,-8.761280000000001,52.8674,Mixed
225,20078C,SN REALT NA MARA,CHAPEL ST,KILKEE,CO CLARE,,Clare,CATHOLIC,N,Y,N,36,40,76,88674.0,159839.0,-9.6462,52.6783,Mixed
226,20086B,ENNIS EDUCATE TOGETHER NS,GORT ROAD,ENNIS,CO CLARE,,Clare,MULTI DENOMINATIONAL,N,Y,N,60,49,109,133831.0,179109.0,-8.982489999999999,52.8589,Mixed
227,20127M,SCOIL NA MAIGHDINE MHUIRE,CORA CHAITHLIN,INIS,CO AN CHLAIR,,Clare,CATHOLIC,N,N,N,94,98,192,139472.0,168372.0,-8.89675,52.7631,Mixed
228,20149W,ST FACHNAN & ST ATTRACTAS N S,KILFENORA,CO CLARE,,,Clare,CATHOLIC,N,N,N,27,35,62,118039.0,193875.0,-9.22064,52.9894,Mixed
229,20245S,Ennistymon National School,Ennistymon,Co. Clare,,,Clare,CATHOLIC,N,Y,N,61,59,120,112753.0,188272.0,-9.297839999999999,52.9382,Mixed
230,20312H,Raheen Wood Steiner School,Tuamgraney,Co Clare,,,Clare,MULTI DENOMINATIONAL,N,N,N,39,49,88,164982.0,182513.0,-8.52035,52.8924,Mixed
231,20313J,Mol an Oige,Ennistoymon,Clare,,,Clare,MULTI DENOMINATIONAL,N,Y,N,69,61,130,112731.0,187932.0,-9.29807,52.9351,Mixed
232,20404M,Coore National School,Mullagh,Ennis,County Clare,,Clare,CATHOLIC,N,Y,N,12,14,26,103970.0,162497.0,-9.420869999999999,52.7051,Mixed
233,20434V,Scoil Mhichil,Cahermurphy,Kilmihil,,,Clare,CATHOLIC,N,N,N,19,15,34,109607.51,167539.95,-9.33887,52.7514,Mixed
234,01197D,STRAWBERRY HILL B N S,SUNDAYS WELL,CORK,,,Cork,CATHOLIC,N,Y,N,177,0,177,165606.0,72135.0,-8.49974,51.9005,Male
235,02707F,SUNDAYS WELL G N S,CORK,CO CORK,,,Cork,CATHOLIC,N,Y,N,0,166,166,165572.0,72134.0,-8.50024,51.9004,Female
236,05940D,SCOIL URSULA,BLACKROCK,CO CORK,,,Cork,CATHOLIC,N,Y,N,69,87,156,171543.0,71548.0,-8.41343,51.8955,Mixed
237,12203G,S N NAOMH ANTAINE,BALLINLOUGH,CORK,,,Cork,CATHOLIC,N,N,N,796,0,796,169211.0,70701.0,-8.447239999999999,51.8878,Male
238,12473M,GREENMOUNT MONASTERY NS,SCOIL MUIRE NA NGRAS,GREENMOUNT,CO CORK,,Cork,CATHOLIC,N,Y,N,165,104,269,166982.0,71056.0,-8.47965,51.8908,Mixed
239,13648D,ST LUKES MXD N S,MAHONYS AVE,CORK,,,Cork,CHURCH OF IRELAND,N,N,N,43,44,87,168626.0,72465.0,-8.45589,51.9036,Mixed
240,13696O,ST VINCENTS CONVENT N S,ST MARYS ROAD,CORK,,,Cork,CATHOLIC,N,Y,N,50,259,309,167016.0,72685.0,-8.47931,51.9055,Mixed
241,13980L,S N B TOGHER CORK,TOGHER,CORK,,,Cork,CATHOLIC,N,N,N,308,0,308,165859.0,69164.0,-8.49577,51.8738,Male
242,14000C,SCOIL NAOMH MHUIRE,N MHUIRE AN OILEAIN,Bishop Street,CORK,,Cork,CATHOLIC,N,Y,N,77,148,225,166953.0,71476.0,-8.48011,51.8946,Mixed
243,14198D,NAOMH EOIN EASPAL,MAYFIELD,CO CORK,,,Cork,CATHOLIC,N,Y,N,107,0,107,170341.0,73639.0,-8.43108,51.9142,Male
244,15781P,BALLINTEMPLE N S,BALLINTEMPLE N S,CRAB LANE,CORK,,Cork,CATHOLIC,N,N,N,111,102,213,169782.0,71248.0,-8.438989999999999,51.8927,Mixed
245,16339F,S N IOSEF NAOFA,MARDYKE,CORK,,,Cork,CATHOLIC,N,N,N,214,0,214,166504.0,71694.0,-8.48665,51.8965,Male
246,16680O,SCOIL COLMCILLE,BLARNEY ST,CORK,,,Cork,CATHOLIC,N,Y,N,196,0,196,166795.0,72191.0,-8.48247,51.901,Male
247,17024I,SCOIL NA CROISE NAOFA,MAHON,CORK,,,Cork,CATHOLIC,N,Y,N,131,96,227,172376.0,71369.0,-8.40132,51.8939,Mixed
248,17045Q,ST PATRICKS B N S,BALLYHOOLEY ROAD,CORK,,,Cork,CATHOLIC,N,Y,N,215,0,215,168758.0,72861.0,-8.45401,51.9072,Male
249,17105I,MUIRE GAN SMAL C,GLASHEEN,CORK,,,Cork,CATHOLIC,N,Y,N,1,201,202,165711.0,70581.0,-8.49806,51.8865,Mixed
250,17313P,OUR LADY OF LOURDES,BALLINLOUGH,CORK,,,Cork,CATHOLIC,N,N,N,0,250,250,168738.0,70891.0,-8.45412,51.8895,Female
251,17993R,SCOIL MHUIRE GAN SMAL B,GLASHEEN,CORK,,,Cork,CATHOLIC,N,Y,N,320,0,320,165711.0,70581.0,-8.49806,51.8865,Male
252,18153B,S N PADRAIG NAOFA C,DILLONS CROSS,CORK,,,Cork,CATHOLIC,N,Y,N,0,225,225,168769.0,72942.0,-8.45386,51.9079,Female
253,18154D,S N PADRAIG NAOFA,DILLONS CROSS,CORK,,,Cork,CATHOLIC,N,Y,N,81,52,133,168745.0,72847.0,-8.4542,51.907,Mixed
254,18217B,SCOIL PADRE PIO N S,CHURCHFIELD,CORK CITY,,,Cork,CATHOLIC,N,Y,N,128,105,233,166178.0,72824.0,-8.4915,51.9067,Mixed
255,18253F,SCOIL NAOMH CAITRIONA,MODEL FARM ROAD,CORCAIGH,,,Cork,CATHOLIC,N,N,N,0,412,412,164513.0,70565.0,-8.515460000000001,51.8863,Female
256,18292P,GAELSCOIL AN TEAGHLAIGH NAOFA,BAILE FEITHEAN,CO CHORCAI,,,Cork,CATHOLIC,N,Y,N,118,111,229,167314.0,70184.0,-8.474739999999999,51.883,Mixed
257,18356P,S N BARRA NAOFA,SCOIL BHARRA,SRAID GILLABBEY,CORCAIGH,,Cork,CHURCH OF IRELAND,N,N,N,18,27,45,166699.0,71423.0,-8.483789999999999,51.8941,Mixed
258,18388F,SCOIL NAOMH MICHEAL,CHURCH ROAD,BLACKROCK,CORK,,Cork,CHURCH OF IRELAND,N,N,N,18,20,38,171132.0,71530.0,-8.4194,51.8953,Mixed
259,18563U,SCOIL NAOMH BRID C,EGLANTINE HOUSE,BALLINLOUGH,CORK,,Cork,CATHOLIC,N,N,N,0,557,557,169346.0,70143.0,-8.44523,51.8828,Female
260,18566D,S N ATHAIR MAITIU C,AN TOCHAIR,CORCAIGH,,,Cork,CATHOLIC,N,N,N,0,288,288,165836.0,69173.0,-8.49611,51.8738,Female
261,18587L,SCOIL MHUIRE BANRION,MAYFIELD,CORK,,,Cork,CATHOLIC,N,Y,N,0,192,192,170857.0,73446.0,-8.42356,51.9125,Female
262,18734V,REALT NA MAIDINE,BALLYPHEHANE,CORK,,,Cork,CATHOLIC,N,Y,N,114,3,117,167046.0,69693.0,-8.478589999999999,51.8786,Mixed
263,18786R,SCOIL IOSAGAIN,FARRANREE,CORK,,,Cork,CATHOLIC,N,Y,N,396,0,396,166672.0,73228.0,-8.48436,51.9103,Male
264,19000E,S N AN SPIORAID NAOMH C,CURRAHEEN RD,BISHOPSTOWN,CORK,,Cork,CATHOLIC,N,N,N,0,261,261,163682.0,69681.0,-8.527439999999999,51.8783,Female
265,19231A,S N BARRA NAOFA BHUACH,BEAUMOUNT,CORK,,,Cork,CATHOLIC,N,N,N,244,0,244,170553.0,70785.0,-8.42775,51.8886,Male
266,19232C,S N BARRA NAOFA CAILINI,BEAUMONT,CORK,,,Cork,CATHOLIC,N,N,N,0,262,262,170527.0,70832.0,-8.42813,51.888999999999996,Female
267,19426P,S N MHARCUIS B,AN GLEANN,CORCAIGH,,,Cork,CATHOLIC,N,Y,N,96,0,96,168552.0,73269.0,-8.45704,51.9108,Male
268,19427R,S N BHREANNDAIN C,AN GHLEANN,CORCAIGH,,,Cork,CATHOLIC,N,Y,N,5,94,99,168072.0,73169.0,-8.46401,51.9099,Mixed
269,19714U,MHUIRE AR CHNOC HAOINE,KNOCKNAHEENY,CORK,,,Cork,CATHOLIC,N,Y,N,140,137,277,165175.0,72620.0,-8.50605,51.9048,Mixed
270,19730S,SCOIL OILIBHEIR,BALLINCOLLIE ROAD,BALLYVOLANE,CORK,,Cork,CATHOLIC,N,N,N,342,318,660,168423.0,74421.0,-8.459019999999999,51.9212,Mixed
271,19852J,GAELSCOIL UI RIADA,BAILE AN EASPAIG,CO CHORCAI,,,Cork,CATHOLIC,N,N,N,125,138,263,164750.0,69773.0,-8.51194,51.8792,Mixed
272,19882S,SCOIL AN ATHAIR TADHG O MURCHU,DUGLAS,CORCAIGH,,,Cork,CATHOLIC,N,N,N,180,202,382,169504.0,69495.0,-8.44287,51.8769,Mixed
273,19906G,Cork Educate Together National School,GRATTAN STREET,CORK,,,Cork,MULTI DENOMINATIONAL,N,N,N,109,102,211,167091.0,71933.0,-8.47815,51.8987,Mixed
274,19908K,GAELSCOIL MHACHAN,CARRAIG DUBH,CORCAIGH,,,Cork,CATHOLIC,N,Y,N,77,98,175,172286.0,71137.0,-8.402610000000001,51.8919,Mixed
275,19909M,GAELSCOIL PEIG SAYERS,Campas Oideachais,Fearann Phiarais,Bothar Ri na hAoine,Corcaigh,Cork,CATHOLIC,N,Y,N,54,80,134,166632.0,74525.0,-8.48507,51.922,Mixed
276,19993E,GAELSCOIL AN GHOIRT ALAINN,AIBHINNE MURMONT,GORT ALAINN,CORCAIGH,,Cork,MULTI DENOMINATIONAL,N,N,N,154,164,318,169644.0,72976.0,-8.44115,51.9082,Mixed
277,20036J,NORTH PRESENTATION PRIMARY SCHOOL,GERALD GRIFFIN STREET,CORK CITY.,,,Cork,CATHOLIC,N,Y,N,70,162,232,167281.0,72646.0,-8.47546,51.9051,Mixed
278,20038N,SCOIL AISEIRI CHRIOST,"FARRANREE,",CORK.,,,Cork,CATHOLIC,N,Y,N,0,373,373,166734.0,73361.0,-8.48347,51.9115,Female
279,20077A,SCOIL AN SPIORAID NAOMH (BOYS),BISHOPSTOWN,CORK,,,Cork,CATHOLIC,N,N,N,375,0,375,163628.0,69671.0,-8.52822,51.8782,Male
280,20106E,SCOIL NIOCLAIS,FRANKFIELD,GRANGE,CORK,,Cork,CATHOLIC,N,N,N,457,450,907,168562.0,68141.0,-8.456430000000001,51.8647,Mixed
281,20140E,SCOIL MHUIRE FATIMA,NORTH MONASTERY,CORK,,,Cork,CATHOLIC,N,Y,N,171,0,171,166931.0,72883.0,-8.48056,51.9073,Male
282,20388R,Bunscoil Chriost Ri,Turners Cross,Cork,,,Cork,CATHOLIC,N,N,N,351,196,547,167859.0,70771.0,-8.46688,51.8883,Mixed
283,20389T,Scoil Maria Assumpta,Ballyphehane,Cork,,,Cork,CATHOLIC,N,Y,N,0,208,208,166975.75,70180.24,-8.47965,51.883,Female
284,00467B,BALLINSPITTLE N S,KINSALE,CO CORK,,,Cork,CATHOLIC,N,N,N,94,91,185,158804.0,45849.0,-8.59545,51.6637,Mixed
285,00512D,MIDLETON CONVENT N S,MIDLETON,CO CORK,,,Cork,CATHOLIC,N,N,N,135,550,685,188795.0,72876.0,-8.16283,51.9081,Mixed
286,01272O,S N CHUAN DOIR,CHUAN DOIR,Glandore,Skibbereen,Co Cork,Cork,CATHOLIC,N,N,N,35,28,63,124116.0,35556.0,-9.09453,51.5676,Mixed
287,01687U,DROMLEIGH N S,MACROOM,CO CORK,,,Cork,CATHOLIC,N,N,N,33,36,69,128455.0,65146.0,-9.038030000000001,51.8341,Mixed
288,01692N,FIRMOUNT MIXED N S,DONOUGHMORE,CO CORK,,,Cork,CATHOLIC,N,N,N,76,72,148,152104.0,81919.0,-8.69727,51.9874,Mixed
289,01867W,CASTLELYONS B N S,FERMOY,CO CORK,,,Cork,CATHOLIC,N,N,N,98,104,202,184344.0,92268.0,-8.2284,52.0822,Mixed
290,02114B,S N BAILE UI GHIBLIN,MITCHELSTOWN,CO CORK,,,Cork,CATHOLIC,N,N,N,59,81,140,186429.0,113438.0,-8.198830000000001,52.2726,Mixed
291,02278I,MILLSTREET CONVENT N S,MILLSTREET,CO CORK,,,Cork,CATHOLIC,N,N,N,69,169,238,126926.0,90125.0,-9.06551,52.0584,Mixed
292,02452V,CLOYNE B N S,CLOYNE,CO CORK,,,Cork,CATHOLIC,N,N,N,123,103,226,191294.0,67684.0,-8.126389999999999,51.8614,Mixed
293,02803B,BANTEER N S,BANTEER,CO CORK,,,Cork,CATHOLIC,N,N,N,78,75,153,139016.0,98040.0,-8.89067,52.131,Mixed
294,03704E,S N SEAN BAILE MOR,MALLOW,CO CORK,,,Cork,CATHOLIC,N,N,N,47,34,81,167481.0,107458.0,-8.47586,52.218,Mixed
295,04054T,BALLINDANGAN MIXED N S,MITCHELSTOWN,CO CORK,,,Cork,CATHOLIC,N,N,N,11,6,17,177061.0,109393.0,-8.33581,52.2359,Mixed
296,04118T,LEAMLARA MIXED N S,LEAMLARA,CO CORK,,,Cork,CATHOLIC,N,N,N,62,64,126,181928.0,79727.0,-8.26299,51.9695,Mixed
297,04152T,S N CNOC AN BHILE,UPTON,CO CORK,,,Cork,CATHOLIC,N,N,N,81,64,145,152764.0,61068.0,-8.68481,51.8,Mixed
298,04186N,S N BHIORAINN,BERRINGS,CO CORK,,,Cork,CATHOLIC,N,N,N,109,92,201,152015.0,76419.0,-8.6978,51.9379,Mixed
299,04230N,SCOIL NAOMH EOIN,BALLINCURRIG,LEAMLARA,CO CORK,,Cork,CATHOLIC,N,N,N,55,52,107,184386.0,81872.0,-8.227319999999999,51.9888,Mixed
300,04268P,CLOCHAR NA TOIRBHIRTE,DONERAILE,CO CORK,,,Cork,CATHOLIC,N,Y,N,18,70,88,159656.0,107539.0,-8.59037,52.2182,Mixed
301,04442F,KYLE N S,YOUGHAL,CO CORK,,,Cork,CATHOLIC,N,N,N,28,17,45,203932.0,77867.0,-7.9428,51.953,Mixed
302,04578H,BALLYVONGANE MIXED N S,AGHINA,CO CORK,,,Cork,CATHOLIC,N,N,N,20,19,39,140954.0,75828.0,-8.85853,51.9316,Mixed
303,04953H,BALLYHASS MIXED N S,CECILSTOWN,MALLOW,CO CORK,,Cork,CATHOLIC,N,N,N,87,73,160,144996.0,102731.0,-8.8041,52.1738,Mixed
304,05257P,PRESENTATION CONVENT,BANDON,CO CORK,,,Cork,CATHOLIC,N,N,N,0,186,186,148672.0,55361.0,-8.74329,51.7484,Female
305,05477G,LARAGH N S,BANDON,CO CORK,,,Cork,CATHOLIC,N,N,N,80,74,154,145502.0,56404.0,-8.78935,51.7575,Mixed
306,05508O,ST COLUMBAS N.S,WITH FACILITY FOR DEAF CHILDREN,DUGHLAS,CORCAIGH,,Cork,CATHOLIC,N,N,N,19,471,490,169486.0,69073.0,-8.4431,51.8732,Mixed
307,05565D,TRAFRASK MIXED N S,BANTRY,CO CORK,,,Cork,CATHOLIC,N,N,N,20,22,42,84915.0,49561.0,-9.66435,51.6868,Mixed
308,05636A,DUNMANWAY MODEL N S,DUNMANWAY,CO CORK,,,Cork,CHURCH OF IRELAND,N,N,N,29,33,62,122927.0,52134.0,-9.11533,51.7164,Mixed
309,05656G,S N AN GHOILIN,SCIOBAIRIN,CO CORK,,,Cork,CATHOLIC,N,N,N,23,24,47,81051.0,27977.0,-9.71289,51.4921,Mixed
310,06295F,FREEMOUNT MIXED N S,RATHLUIRC,CO CORK,,,Cork,CATHOLIC,N,N,N,38,48,86,139672.0,114355.0,-8.883989999999999,52.2777,Mixed
311,06342L,VICARSTOWN MIXED N S,VICARSTOWN,CO CORK,,,Cork,CATHOLIC,N,N,N,36,51,87,154917.0,78207.0,-8.65584,51.9543,Mixed
312,07006A,BALLYCLOUGH MIXED N S,MALLOW,CO CORK,,,Cork,CATHOLIC,N,N,N,54,67,121,149694.0,101875.0,-8.7353,52.1665,Mixed
313,07242M,CLOGHROE MIXED N S,BLARNEY,CO CORK,,,Cork,CATHOLIC,N,N,N,280,284,564,157666.0,74128.0,-8.61535,51.9178,Mixed
314,07651G,CONVENT OF MERCY,CLONAKILTY,CO CORK,,,Cork,CATHOLIC,N,N,N,0,216,216,139083.0,41839.0,-8.879769999999999,51.6259,Female
315,08393P,S N RATH DUBH,GRENAGH,CO CORK,,,Cork,CATHOLIC,N,N,N,119,144,263,159231.0,84746.0,-8.593860000000001,52.0134,Mixed
316,08430S,SCOIL NAOMH SEOSAMH,SKIBBEREEN,CO CORK,,,Cork,CATHOLIC,N,N,N,1,190,191,112626.0,34028.0,-9.259839999999999,51.5522,Mixed
317,08828B,KILCORNEY MIXED N S,RATHCOOLE,MALLOW,CO CORK,,Cork,CATHOLIC,N,N,N,18,16,34,134047.0,90379.0,-8.96175,52.0616,Mixed
318,08972I,CASTLEALACK N S,CHAISLEAN NA LEACHT,BANDON,CO CORK,,Cork,CATHOLIC,N,N,N,45,33,78,149017.0,58863.0,-8.73881,51.7799,Mixed
319,09161W,OUR LADY OF MERCY N S,BANTRY,CO CORK,,,Cork,CATHOLIC,N,N,N,81,171,252,100191.0,48317.0,-9.44315,51.6786,Mixed
320,09537S,BALLINADEE N S,BANDON,CO CORK,,,Cork,CATHOLIC,N,N,N,71,64,135,156731.0,51386.0,-8.6261,51.7133,Mixed
321,09815U,TULLASLEASE MIXED N S,RATHLUIRC,CO CORK,,,Cork,CATHOLIC,N,Y,N,8,12,20,135795.0,118587.0,-8.9416,52.3153,Mixed
322,09872J,CLOGHOOLA MIXED N S,MILLSTREET,CO CORK,,,Cork,CATHOLIC,N,N,N,13,3,16,126785.0,86430.0,-9.06678,52.0252,Mixed
323,10047I,MACROOM CONVENT N S,MACROOM,CO CORK,,,Cork,CATHOLIC,N,N,N,109,200,309,134142.0,72696.0,-8.95697,51.9027,Mixed
324,10243I,S N ACHADH EOCHAILLE,ENNISKEAN,CO CORK,,,Cork,CATHOLIC,N,N,N,30,32,62,138923.0,50702.0,-8.88363,51.7055,Mixed
325,10499U,KILGARIFFE N S,CLONAKILTY,CO CORK,,,Cork,CHURCH OF IRELAND,N,N,N,23,25,48,139503.0,41766.0,-8.8737,51.6253,Mixed
326,10523O,FERMOY ADAIR N S,FERMOY,CO CORK,,,Cork,CHURCH OF IRELAND,N,N,N,19,26,45,181261.0,98964.0,-8.27375,52.1423,Mixed
327,10548H,ST BRENDANS NATIONAL SCHOOL,BANTRY,CO CORK,,,Cork,CHURCH OF IRELAND,N,N,N,13,16,29,99430.0,48608.0,-9.454239999999999,51.681000000000004,Mixed
328,10724B,SOUTH ABBEY NS,YOUGHAL,CO CORK,,,Cork,CHURCH OF IRELAND,N,N,N,42,58,100,210823.0,77406.0,-7.842569999999999,51.9488,Mixed
329,10739O,BALLINCARRIGA MXD N S,BALLINACARRIGA MXD,DUNMANWAY,CO CORK,,Cork,CATHOLIC,N,N,N,25,44,69,128385.0,50689.0,-9.03606,51.7042,Mixed
330,10771K,COBH N S,BELLEVUE,COBH,CO CORK,,Cork,CHURCH OF IRELAND,N,N,N,15,13,28,180258.0,66619.0,-8.286539999999999,51.8516,Mixed
331,11236Q,NEWMARKET B N S,NEWMARKET,CO CORK,,,Cork,CATHOLIC,N,N,N,97,0,97,131378.0,107392.0,-9.00409,52.2141,Male
332,11245R,SN CILL MHIC ABHAIDH,LEAP,CO CORK,,,Cork,CATHOLIC,N,N,N,23,24,47,121159.0,37168.0,-9.13754,51.5817,Mixed
333,11249C,BURNFORT N S,MALLOW,CO CORK,,,Cork,CATHOLIC,N,N,N,84,42,126,159040.0,90698.0,-8.59736,52.0668,Mixed
334,11262R,DRUIMNE N S,RATHLUIRC,CO CORK,,,Cork,CATHOLIC,N,Y,N,34,27,61,145507.0,118359.0,-8.79915,52.3143,Mixed
335,11337W,KILMAGNER N S,FERMOY,CO CORK,,,Cork,CATHOLIC,N,N,N,36,25,61,188371.0,96919.0,-8.16981,52.1242,Mixed
336,11496T,Shandrum National School,Newtownshandrum,Charleville,,,Cork,CATHOLIC,N,N,N,92,63,155,147731.0,121777.0,-8.76707,52.3452,Mixed
337,11931L,S N IOSEPH,DRINAGH,DUNMANWAY,CO CORK,,Cork,CATHOLIC,N,N,N,15,10,25,116594.0,42947.0,-9.20476,51.633,Mixed
338,11992I,WHITEGATE MIXED N S,MIDLETON,CO CORK,,,Cork,CATHOLIC,N,N,N,42,54,96,183809.0,63428.0,-8.23485,51.823,Mixed
339,12004A,MALLOW NO 1 N S,SHORTCASTLE,MALLOW,CO CORK,,Cork,CHURCH OF IRELAND,N,N,N,34,25,59,155699.0,98624.0,-8.647110000000001,52.1378,Mixed
340,12012W,ST LUKES N S DOUGLAS,CORK,CO CORK,,,Cork,CHURCH OF IRELAND,N,N,N,117,95,212,169995.0,69100.0,-8.43571,51.8734,Mixed
341,12015F,LISCARROL N S,MALLOW,CO CORK,,,Cork,CATHOLIC,N,N,N,76,65,141,144993.0,112173.0,-8.80568,52.2586,Mixed
342,12041G,ST JOHN THE BAPTIST N S,MIDLETON,CO CORK,,,Cork,CHURCH OF IRELAND,N,N,N,114,104,218,188433.0,73722.0,-8.16812,51.9157,Mixed
343,12147W,S N AN AIRD,CLONAKILTY,CO CORK,,,Cork,CATHOLIC,N,N,N,33,26,59,136922.0,35723.0,-8.909880000000001,51.5707,Mixed
344,12169J,TEMPLEBRADY N S,CROSSHAVEN,CO CORK,,,Cork,CHURCH OF IRELAND,N,N,N,27,34,61,179531.0,60858.0,-8.29675,51.7998,Mixed
345,12259K,S N OIR CHEANN,EYERIES,BANTRY,CO CORK,,Cork,CATHOLIC,N,N,N,14,13,27,61713.0,48525.0,-9.99928,51.6723,Mixed
346,12263B,GOGGINSHILL N S,BALLINHASSIG,CO CORK,,,Cork,CATHOLIC,N,N,N,99,92,191,160165.0,63563.0,-8.577810000000001,51.823,Mixed
347,12281D,WALTERSTOWN N S,COBH,CO CORK,,,Cork,CATHOLIC,N,N,N,75,83,158,183776.0,68258.0,-8.235560000000001,51.8664,Mixed
348,12292I,CANOVEE MIXED N S,CARRIGADROHID,CO CORK,,,Cork,CATHOLIC,N,N,N,64,77,141,141102.0,71076.0,-8.85557,51.8889,Mixed
349,12382J,CURRIGLASS NS,CURRIGLASS,MALLOW,CO CORK,,Cork,CATHOLIC,N,N,N,25,24,49,196657.0,93544.0,-8.04878,52.0939,Mixed
350,12383L,UNION HALL MIXED N S,CORK,CO CORK,,,Cork,CATHOLIC,N,N,N,36,38,74,120694.0,33976.0,-9.14353,51.5529,Mixed
351,12395S,RUSHEEN NS,COACHFORD,CO CORK,,,Cork,CATHOLIC,N,N,N,48,46,94,137873.0,76498.0,-8.90345,51.9373,Mixed
352,12446J,S N GLEANN NA HULADH,MITCHELSTOWN,CO CORK,,,Cork,CATHOLIC,N,N,N,41,34,75,175154.0,111352.0,-8.36387,52.2534,Mixed
353,12447L,BALTYDANIEL N S,MALLOW,CO CORK,,,Cork,CATHOLIC,N,N,N,83,95,178,154194.0,103997.0,-8.66982,52.18600000000001,Mixed
354,12456M,TIMOLEAGUE N S,BANDON,CO CORK,,,Cork,CATHOLIC,N,N,N,56,86,142,147152.0,43538.0,-8.76351,51.641999999999996,Mixed
355,12505W,KILBARRY N S,MACROOM,CO CORK,,,Cork,CATHOLIC,N,N,N,20,24,44,126987.0,68247.0,-9.05998,51.8618,Mixed
356,12598J,ARDAGH BOYS N S,ROSCARBERY,CO CORK,,,Cork,CATHOLIC,N,N,N,60,0,60,128679.0,36852.0,-9.02899,51.5799,Male
357,12676D,CLOGHEEN MXD N S,CARRIGROHANE,CO CORK,,,Cork,CATHOLIC,N,N,N,92,105,197,161358.0,73019.0,-8.56156,51.9081,Mixed
358,12685E,RUSHNACAHARA N S,DURRNS,BANTRY,CO CORK,,Cork,CATHOLIC,N,N,N,12,12,24,87608.0,40389.0,-9.62247,51.605,Mixed
359,12967O,INCHIGEELA N S,INCHIGEELA,CO CORK,,,Cork,CATHOLIC,N,N,N,21,20,41,122483.0,65941.0,-9.124830000000001,51.8405,Mixed
360,13031I,ST JOSEPHS CONVENT N S,RATHLUIRC,CO CORK,,,Cork,CATHOLIC,N,Y,N,92,84,176,153313.0,122730.0,-8.68529,52.3543,Mixed
361,13095L,S N AN DROMA MHOIR,AGHAVILLE,BANTRY,CO CORK,,Cork,CATHOLIC,N,N,N,31,29,60,106001.0,45677.0,-9.358460000000001,51.6558,Mixed
362,13125R,SCOIL DHAIRBHRE,CLONAKILTY,CO CORK,,,Cork,CATHOLIC,N,N,N,35,36,71,142677.0,40591.0,-8.82767,51.6151,Mixed
363,13234W,CLOUGHDUV N S,CLOUGHDUV,CROOKSTOWN,CO. CORK.,,Cork,CATHOLIC,N,N,N,57,65,122,145696.0,66248.0,-8.788089999999999,51.846000000000004,Mixed
364,13286S,TIRELTON N S MXD,MACROOM,CO CORK,,,Cork,CATHOLIC,N,N,N,38,41,79,131776.0,65404.0,-8.9899,51.8368,Mixed
365,13375R,SCOIL BHRIDE,CROS MHATHUNA,BANDON,CO CORK,,Cork,CATHOLIC,N,N,N,111,109,220,146849.0,52970.0,-8.76932,51.7267,Mixed
366,13402R,KNOCKRAHA N S,KNOCKRAHA,CORK,CO CORK,,Cork,CATHOLIC,N,N,N,67,65,132,176698.0,78459.0,-8.33901,51.9579,Mixed
367,13450F,Bunscoil Rinn an Chabhlaigh,COBH,CO CORK,,,Cork,CATHOLIC,N,N,N,376,352,728,178283.0,66443.0,-8.31519,51.8499,Mixed
368,13483U,S N ATH NA LIONTA,MALLOW,CO CORK,,,Cork,CATHOLIC,N,N,N,53,45,98,156299.0,90903.0,-8.63735,52.0685,Mixed
369,13512B,SCOIL MHUIRE LOURDES,CARRIGALINE,CO CORK,,,Cork,CATHOLIC,N,N,N,453,0,453,172628.0,63042.0,-8.397,51.8191,Male
370,13543M,DERRINACAHARA N S,DUNMANWAY,CO CORK,,,Cork,CATHOLIC,N,Y,N,40,31,71,118799.0,56223.0,-9.17601,51.7526,Mixed
371,13647B,CASTLEMARTYR N S,CASTLEMARTYR,CO CORK,,,Cork,CATHOLIC,N,N,N,103,116,219,196495.0,73179.0,-8.050939999999999,51.9109,Mixed
372,13661S,DUNMANWAY CONVENT N S,DUNMANWAY,CO CORK,,,Cork,CATHOLIC,N,N,N,6,105,111,123073.0,52918.0,-9.113389999999999,51.7235,Mixed
373,13662U,DUNMANWAY CONVENT INF,DUNMANWAY,CO CORK,,,Cork,CATHOLIC,N,N,N,42,56,98,123057.0,52900.0,-9.11362,51.7233,Mixed
374,13663W,LOWER GLANMIRE N S,GLANMIRE,CO CORK,,,Cork,CATHOLIC,N,N,N,80,71,151,171636.0,74222.0,-8.4123,51.9195,Mixed
375,13728B,CASTLETOWNSEND MXD N S,SKIBBEREEN,CO CORK,,,Cork,CATHOLIC,N,N,N,60,59,119,117011.0,31472.0,-9.19603,51.5299,Mixed
376,13747F,RIVERSTOWN N S,GLANMIRE,CO CORK,,,Cork,CATHOLIC,N,N,N,357,360,717,173032.0,75356.0,-8.3921,51.9298,Mixed
377,13779S,S N DHROM ATHAIN,MALLOW,CO CORK,,,Cork,CATHOLIC,N,N,N,117,102,219,152514.0,94863.0,-8.6931,52.1038,Mixed
378,13828F,DOUGLAS B N S,DOUGLAS,CORK,,,Cork,CATHOLIC,N,N,N,467,1,468,169673.0,69081.0,-8.440380000000001,51.8732,Mixed
379,13889C,SHANBALLY N S,RINN SCIDE,CO CORK,,,Cork,CATHOLIC,N,N,N,134,110,244,175655.0,64347.0,-8.35319,51.831,Mixed
380,13910N,S N BUN AN TSABHAIRNE,CROSSHAVEN,CO CORK,,,Cork,CATHOLIC,N,N,N,0,188,188,179470.0,61086.0,-8.29765,51.8018,Female
381,13976U,ST MATTHIAS N S,CHURCH ROAD,BALLYDEHOB,CO CORK,,Cork,CHURCH OF IRELAND,N,Y,N,8,6,14,98267.0,35505.0,-9.467239999999999,51.5631,Mixed
382,14002G,KNOCKACLARIG MXD N S,BROSNA,TRALEE,CO KERRY,,Cork,CATHOLIC,N,N,N,18,17,35,116946.0,114432.0,-9.21695,52.2754,Mixed
383,14014N,S N BAILE DEASMUMHAN,MALLOW,CO CORK,,,Cork,CATHOLIC,N,N,N,40,47,87,115515.0,104059.0,-9.23532,52.181999999999995,Mixed
384,14022M,COACHFORD N S,COACHFORD,CO CORK,,,Cork,CATHOLIC,N,N,N,62,56,118,145494.0,73370.0,-8.79214,51.9099,Mixed
385,14052V,KANTURK B N S,KANTURK,CO CORK,,,Cork,CATHOLIC,N,N,N,105,0,105,137745.0,103096.0,-8.91015,52.1763,Male
386,14065H,SHERKIN ISLAND N S,BALTIMORE,CO CORK,,,Cork,CATHOLIC,Y,Y,N,9,3,12,102287.0,25311.0,-9.406460000000001,51.4722,Mixed
387,14107U,CASTLETOWNROCHE N S,CASTLETOWNROCHE,CO CORK,,,Cork,CATHOLIC,N,N,N,37,32,69,168021.0,102312.0,-8.46748,52.1718,Mixed
388,14116V,KILBRITTAIN MIXED N S,KILBRITTAIN,CO CORK,,,Cork,CATHOLIC,N,N,N,90,87,177,151996.0,46905.0,-8.69399,51.6727,Mixed
389,14225D,SCOIL BHRIDE,BALLYDEHOB,CO CORK,,,Cork,CATHOLIC,N,N,N,62,58,120,98830.0,35151.0,-9.45903,51.56,Mixed
390,14227H,KILCOE NS,SKIBBEREEN,CO CORK,,,Cork,CATHOLIC,N,Y,N,28,28,56,103624.0,34985.0,-9.38987,51.5594,Mixed
391,14303U,S N CLEIRE,OILEAN CHLEIRE,AN SCIOBAIRIN,CO CHORCAI,,Cork,CATHOLIC,Y,Y,Y,9,3,12,95859.0,21289.0,-9.49777,51.4349,Mixed
392,14430E,DERRYCREHA N S,BANTRY,CO CORK,,,Cork,CATHOLIC,N,N,N,18,23,41,95738.0,54952.0,-9.5095,51.7374,Mixed
393,14433K,ABBEYSTREWRY N S,SKIBBEREEN,CO CORK,,,Cork,CHURCH OF IRELAND,N,N,N,44,54,98,112551.0,32725.0,-9.2606,51.5405,Mixed
394,14726C,KINSALE N S,KINSALE,CO CORK,,,Cork,CHURCH OF IRELAND,N,N,N,55,43,98,164488.0,50903.0,-8.513810000000001,51.7095,Mixed
395,14784Q,DUNMANWAY B N S,DUNMANWAY,CO CORK,,,Cork,CATHOLIC,N,N,N,88,0,88,123521.0,52701.0,-9.106860000000001,51.7216,Male
396,14813U,ROSCARBERY CON N S,ROSCARBERY,CO CORK,,,Cork,CATHOLIC,N,N,N,29,77,106,129023.0,37192.0,-9.0241,51.583,Mixed
397,14816D,SCOIL LACHTAIN NAOFA,CILL NA MARTRA,CO CHORCAI,,,Cork,CATHOLIC,N,N,Y,53,55,108,125154.0,72445.0,-9.087489999999999,51.8993,Mixed
398,14839P,CLONDROHID N S,CLONDROHID,CO CORK,,,Cork,CATHOLIC,N,N,N,105,104,209,129760.0,75606.0,-9.02122,51.9283,Mixed
399,14993C,S N RAE NA NDOIRI,RAE NA NDOIRI,MAIGH CHROMTHA,CO CHORCAI,,Cork,CATHOLIC,N,N,Y,14,9,23,120133.0,72663.0,-9.16048,51.9005,Mixed
400,15135H,BANTRY BOYS N S,BANTRY,CO CORK,,,Cork,CATHOLIC,N,N,N,118,0,118,100361.0,48057.0,-9.44062,51.6763,Male
401,15140A,BALLINGREE MXD N S,MACROOM,CO CORK,,,Cork,CATHOLIC,N,N,N,21,12,33,136484.0,80963.0,-8.92447,51.9772,Mixed
402,15165Q,BALLINTOTAS N S,CASTLEMARTYR,CO CORK,,,Cork,CATHOLIC,N,N,N,74,69,143,193445.0,72992.0,-8.095260000000001,51.9092,Mixed
403,15346U,S N BAILE AN MHUIRNE,CARRIG AN ADHMAID,MAIGH CHROMTHA,CO CHORCAI,,Cork,CATHOLIC,N,N,Y,67,61,128,121023.0,76728.0,-9.148480000000001,51.9372,Mixed
404,15380U,DROMAGH MIXED N S,DROMAGH,MALLOW,CO. CORK,,Cork,CATHOLIC,N,N,N,13,20,33,134967.0,98432.0,-8.949869999999999,52.13399999999999,Mixed
405,15410D,KILCROHANE N S,DURRUS,BANTRY,CO CORK,,Cork,CATHOLIC,N,N,N,16,12,28,81998.0,37794.0,-9.70255,51.5805,Mixed
406,15484J,GLOUNTHAUNE MIXED N.S.,GLOUNTHAUNE,CO.CORK,,,Cork,CATHOLIC,N,N,N,236,191,427,176527.0,73578.0,-8.34116,51.913999999999994,Mixed
407,15516T,CLONPRIEST N S,YOUGHAL,CO CORK,,,Cork,CATHOLIC,N,N,N,81,65,146,205394.0,75217.0,-7.9215800000000005,51.9292,Mixed
408,15550T,BALLYHEEDA N S,BALLINHASSIG,CO CORK,,,Cork,CATHOLIC,N,N,N,95,69,164,160606.0,60122.0,-8.571019999999999,51.7921,Mixed
409,15563F,LISHEEN MIXED N S,SKIBBEREEN,CO CORK,,,Cork,CATHOLIC,N,N,N,39,31,70,104557.0,31906.0,-9.375580000000001,51.5318,Mixed
410,15594Q,GRANGE FERMOY N S,FERMOY,CO CORK,,,Cork,CATHOLIC,N,N,N,67,76,143,179067.0,99904.0,-8.305860000000001,52.1507,Mixed
411,15597W,MACROOM B N S,MACROOM,CO CORK,,,Cork,CATHOLIC,N,N,N,138,6,144,134362.0,72659.0,-8.95377,51.9024,Mixed
412,15646J,COOMHOLA N S,BANTRY,CO CORK,,,Cork,CATHOLIC,N,N,N,41,52,93,99980.0,55436.0,-9.44824,51.7425,Mixed
413,15701O,BARTLEMY N S,RATHCORMAC,FERMOY,CO CORK,,Cork,CATHOLIC,N,N,N,56,45,101,181855.0,88337.0,-8.264510000000001,52.0468,Mixed
414,15718I,S N SEOSAMH COBH,COBH,CO CORK,,,Cork,CATHOLIC,N,N,N,326,0,326,179896.0,66916.0,-8.29181,51.8542,Male
415,15792U,UPPER GLANMIRE N S,SCOIL NAOMH MICHEAL,UPPER GLANMIRE,WHITES CROSS,CO CORK,Cork,CATHOLIC,N,N,N,152,112,264,170449.0,77690.0,-8.42985,51.9507,Mixed
416,15903D,KILLAVULLEN N S,MALLOW,CO CORK,,,Cork,CATHOLIC,N,N,N,78,57,135,164713.0,99402.0,-8.51553,52.1455,Mixed
417,16087E,KEALKIL N S,BANTRY,CO CORK,,,Cork,CATHOLIC,N,N,N,47,56,103,104894.0,55992.0,-9.37727,51.7483,Mixed
418,16109L,SCOIL REALT NA MARA,BALLYCOTTON,MIDLETON,CO CORK,,Cork,CATHOLIC,N,N,N,58,35,93,198941.0,64195.0,-8.015360000000001,51.8301,Mixed
419,16128P,Bunscoil na Toirbhirte,MITCHELSTOWN,CO CORK,,,Cork,CATHOLIC,N,N,N,68,281,349,181888.0,112631.0,-8.26532,52.2652,Mixed
420,16159D,Convent National School,MALLOW,CO CORK,,,Cork,CATHOLIC,N,N,N,16,279,295,156048.0,99176.0,-8.64208,52.1428,Mixed
421,16246V,DRUMCLUGH N S,BANTRY,CO CORK,,,Cork,CATHOLIC,N,N,N,24,26,50,106641.0,52241.0,-9.35097,51.7149,Mixed
422,16259H,KILCOLMAN N S,ENNISKEAN,CO CORK,,,Cork,CATHOLIC,N,N,N,24,21,45,141007.0,52486.0,-8.85379,51.7218,Mixed
423,16271U,WATERGRASSHILL N S,WATERGRASSHILL,CO CORK,,,Cork,CATHOLIC,N,N,N,146,134,280,176544.0,84117.0,-8.34164,52.0087,Mixed
424,16286K,CARRIGBOY N S,DURRUS,BANTRY,CO CORK,,Cork,CATHOLIC,N,N,N,53,35,88,94532.0,42119.0,-9.52308,51.6218,Mixed
425,16335U,RYLANE N S,CORK,CO CORK,,,Cork,CATHOLIC,N,N,N,46,29,75,142511.0,81213.0,-8.8368,51.9801,Mixed
426,16377N,St Marys National School,"Orilia Terrace,",Cobh,Co. Cork,,Cork,CATHOLIC,N,N,N,4,314,318,179715.0,66911.0,-8.29444,51.8542,Mixed
427,16396R,BOHERBUE N S,BOHERBUE,CO CORK,,,Cork,CATHOLIC,N,N,N,62,63,125,126705.0,101216.0,-9.07112,52.158,Mixed
428,16648S,ATH TREASNA G N S,ATH TREASNA,CO CORK,,,Cork,CATHOLIC,N,N,N,0,107,107,132376.0,107289.0,-8.989469999999999,52.2133,Female
429,16681Q,SCOIL NA MBRAITHRE,RATHLUIRC,CO CORK,,,Cork,CATHOLIC,N,N,N,157,0,157,153749.0,122762.0,-8.678889999999999,52.3546,Male
430,16683U,BISHOP MURPHY MEMORIAL SCHOOL,FERMOY,CO. CORK.,,,Cork,CATHOLIC,N,N,N,100,0,100,180905.0,98383.0,-8.27892,52.1371,Male
431,16684W,SCOIL NA MBRAITHRE,MIDLETON,CO CORK,,,Cork,CATHOLIC,N,N,N,318,0,318,188337.0,72876.0,-8.16949,51.9081,Male
432,16746S,BALLYGARVAN N S,BALLYGARVAN,CO CORK,,,Cork,CATHOLIC,N,N,N,221,154,375,168183.0,63493.0,-8.46151,51.8229,Mixed
433,16863W,DESERTSERGES N S,ENNISKEAN,CO CORK,,,Cork,CHURCH OF IRELAND,N,N,N,13,11,24,138823.0,53606.0,-8.885589999999999,51.7316,Mixed
434,16876I,S N CAIPIN,INISCEIN,CO CHORCAI,,,Cork,CATHOLIC,N,N,N,39,43,82,131621.0,60526.0,-8.99119,51.793,Mixed
435,16885J,ADRIGOLE N S,ADRIGOLE,BANTRY,CO CORK,,Cork,CATHOLIC,N,N,N,7,6,13,81077.0,50586.0,-9.72017,51.6952,Mixed
436,16900C,S N PADRAIG NAOFA B,SKIBBEREEN,CO CORK,,,Cork,CATHOLIC,N,N,N,95,0,95,112643.0,34235.0,-9.25965,51.5541,Male
437,16901E,S N PADRAIG NAOFA N B,SKIBBEREEN,CO CORK,,,Cork,CATHOLIC,N,N,N,85,0,85,112637.0,34255.0,-9.259739999999999,51.5543,Male
438,16940O,DUNDAR MHUIGHE N S,KINSALE,CO CORK,,,Cork,CATHOLIC,N,N,N,129,115,244,159020.0,52888.0,-8.593160000000001,51.727,Mixed
439,16945B,LISGRIFFIN N S,BUTTEVANT,CO CORK,,,Cork,CATHOLIC,N,N,N,17,15,32,149179.0,107988.0,-8.743739999999999,52.2214,Mixed
440,16955E,S N NA MONA FLICHE,MACROOM,CO CORK,,,Cork,CATHOLIC,N,N,N,31,25,56,132512.0,79953.0,-8.98207,51.9677,Mixed
441,17011W,MOCOMHOG N S,CAPPABOY,KEALKIL,BANTRY,CO CORK,Cork,CATHOLIC,N,Y,N,14,12,26,109725.0,59858.0,-9.30833,51.7839,Mixed
442,17050J,S N NAOMH SHEAMUIS,DURRUS,CO CORK,,,Cork,CHURCH OF IRELAND,N,N,N,16,15,31,93770.0,42126.0,-9.53408,51.6218,Mixed
443,17079K,S N CARRAIG AN IME,MACROOM,CO CORK,,,Cork,CATHOLIC,N,N,N,17,6,23,128531.0,81176.0,-9.04025,51.9782,Mixed
444,17087J,S N AN CHLOCHAIR,KANTURK,CO CORK,,,Cork,CATHOLIC,N,N,N,37,132,169,137900.0,103207.0,-8.907910000000001,52.1773,Mixed
445,17103E,ST MARYS CONVENT G,CARRIGTWOHILL,CO CORK,,,Cork,CATHOLIC,N,N,N,0,434,434,182263.0,73051.0,-8.257769999999999,51.9095,Female
446,17112F,BALLYHEA N S,BALLYHEA,RATHLUIRC,CO CORK,,Cork,CATHOLIC,N,Y,N,80,74,154,154758.0,117596.0,-8.66339,52.3083,Mixed
447,17152R,S N CNOC SCEACH,CLANNA CAOILTE,CO CHORCAI,,,Cork,CATHOLIC,N,N,N,47,59,106,135801.0,46169.0,-8.92796,51.6645,Mixed
448,17156C,SCOIL NAOMH AINE,CHARLEVILLE,CO CORK,,,Cork,CATHOLIC,N,N,N,0,153,153,153329.0,122770.0,-8.68506,52.3546,Female
449,17168J,S N INIS EOGHANAIN,INIS EOGHANAN,CO CHORCAI,,,Cork,CATHOLIC,N,N,N,154,127,281,154706.0,57365.0,-8.65618,51.7669,Mixed
450,17171V,S N CUILINN UI CAOIMH,MALA,CO CHORCAI,,,Cork,CATHOLIC,N,N,N,34,30,64,123917.0,95725.0,-9.11063,52.1083,Mixed
451,17245B,DRIPSEY N S,DRIPSEY,CO CORK,,,Cork,CATHOLIC,N,N,N,56,53,109,150521.0,73652.0,-8.71913,51.913000000000004,Mixed
452,17251T,OVENS N S,OVENS,CO CORK,,,Cork,CATHOLIC,N,N,N,176,184,360,154163.0,69431.0,-8.66564,51.8753,Mixed
453,17281F,TOGHER N S,DUNMANWAY,CO CORK,,,Cork,CATHOLIC,N,Y,N,21,18,39,120218.0,57824.0,-9.15583,51.7672,Mixed
454,17297U,S N FEARGHAIL NAOFA,KILLEAGH,CO CORK,,,Cork,CATHOLIC,N,N,N,103,102,205,200363.0,76403.0,-7.99472,51.9399,Mixed
455,17300G,LIOS MAIGHIR,NEWMARKET,CO CORK,,,Cork,CATHOLIC,N,N,N,31,28,59,135628.0,108910.0,-8.9422,52.2283,Mixed
456,17323S,MONKSTOWN N S,MONKSTOWN,CO CORK,,,Cork,CATHOLIC,N,N,N,112,116,228,177014.0,66318.0,-8.3336,51.8488,Mixed
457,17324U,SCOIL NAOMH BREANDAN,CNOC AN CHUILINN,AN RATH MHOR,CO CHIARRAI,,Cork,CATHOLIC,N,N,N,10,10,20,117201.0,90801.0,-9.20745,52.0631,Mixed
458,17338I,S N CILL BONAIN,ATHARLACH,CO CHORCAI,,,Cork,CATHOLIC,N,N,N,42,39,81,149850.0,65508.0,-8.7277,51.8397,Mixed
459,17360B,S N MHUIRE,RATH PEACAIN,BLACKPOOL,CO CORK,,Cork,CATHOLIC,N,N,N,165,179,344,165736.0,76138.0,-8.49825,51.9364,Mixed
460,17362F,S N BREANDAN NAOFA,RATHCOOL,MALLOW,CO CORK,,Cork,CATHOLIC,N,N,N,38,50,88,133337.0,93975.0,-8.9728,52.0938,Mixed
461,17363H,SN CROS TSEAIN,BUN AN TABHAIRNE,CORCAIGH,,,Cork,CATHOLIC,N,N,N,192,0,192,179262.0,61200.0,-8.30067,51.8028,Male
462,17505B,S N CILL RUADHAIN,GLANMIRE,CO CORK,,,Cork,CATHOLIC,N,N,N,215,191,406,173771.0,75381.0,-8.38136,51.9301,Mixed
463,17515E,S N ACHADH BOLG,ACHADH AN CHRIOSTE,CO CORCAIGH,,,Cork,CATHOLIC,N,N,N,44,28,72,144514.0,77199.0,-8.807,51.9443,Mixed
464,17527L,SCOIL BHRUGH THUINNE,CHURCHTOWN,MALLOW,CO CORK,,Cork,CATHOLIC,N,N,N,47,46,93,150207.0,113215.0,-8.72947,52.2685,Mixed
465,17528N,S N NAOMH CAITRIONA,CONNAITHE CONNA,CO CORK,,,Cork,CATHOLIC,N,N,N,77,66,143,191887.0,93799.0,-8.1184,52.0962,Mixed
466,17533G,S N RATHAIN,MALLOW,CO CORK,,,Cork,CATHOLIC,N,N,N,33,26,59,159453.0,97209.0,-8.59211,52.1254,Mixed
467,17579H,S N ATH FHADA,ROSTIALLAIN,CO CORK,,,Cork,CATHOLIC,N,N,N,149,138,287,185768.0,65030.0,-8.2065,51.8375,Mixed
468,17600S,S N NA SCAIRTE LEITHE,SALEEN CLOYNE,MIDLETON,CO CORK,,Cork,CATHOLIC,N,N,N,202,146,348,188933.0,68427.0,-8.160689999999999,51.8681,Mixed
469,17602W,S N NAOMH LACHTIN,DOMHNACH MOR,CO CHORCAI,,,Cork,CATHOLIC,N,N,N,78,64,142,148345.0,82429.0,-8.75207,51.9916,Mixed
470,17609N,RATHCORMAC N S,RATHCORMAC,CO CORK,,,Cork,CATHOLIC,N,N,N,151,152,303,180562.0,91661.0,-8.283539999999999,52.0767,Mixed
471,17639W,SCOIL NA MBRAITHRE,MITCHELSTOWN,CO CORK,,,Cork,CATHOLIC,N,Y,N,215,0,215,181858.0,112362.0,-8.26575,52.2628,Male
472,17667E,S N PADRAIG NAOFA,WHITECHURCH,CO CORK,,,Cork,CATHOLIC,N,N,N,151,167,318,163542.0,81030.0,-8.530669999999999,51.9803,Mixed
473,17706L,S N AN MHAOILINN,NEWMARKET,CO CORK,,,Cork,CATHOLIC,N,N,N,27,29,56,129419.0,113059.0,-9.03393,52.2648,Mixed
474,17715M,S N RATH A BHARRAIGH,CLONAKILTY,CO CORK,,,Cork,CATHOLIC,N,N,N,33,14,47,134450.0,34738.0,-8.94535,51.5616,Mixed
475,17754W,S N NAOMH EOIN B,BALLINCOLLIG,CO CORK,,,Cork,CATHOLIC,N,N,N,394,0,394,159389.0,70566.0,-8.589889999999999,51.8859,Male
476,17755B,SCOIL NAOMH MHUIRE C,BALLINCOLLIG,CO CORK,,,Cork,CATHOLIC,N,N,N,0,400,400,159226.0,70593.0,-8.592260000000001,51.8862,Female
477,17761T,S N MHUIRE,ARAGLINN,CILL UIRD,CO CHORCAI,,Cork,CATHOLIC,N,N,N,40,36,76,188599.0,105791.0,-8.166780000000001,52.2039,Mixed
478,17763A,ROCKCHAPEL N S,ROCKCHAPEL NS,MALLOW,CO CORK,,Cork,CATHOLIC,N,N,N,19,15,34,122212.0,115920.0,-9.14015,52.2895,Mixed
479,17765E,S N RE NA SCRINE,ROSCARBERY,CO CORK,,,Cork,CATHOLIC,N,N,N,14,16,30,127163.0,42060.0,-9.05194,51.6265,Mixed
480,17790D,CURRAGHAGALLA N S,KILWORTH,CO CORK,,,Cork,CATHOLIC,N,N,N,24,15,39,180023.0,106156.0,-8.29226,52.2069,Mixed
481,17794L,S N AN PHAIRC,YOUGHAL,CO CORK,,,Cork,CATHOLIC,N,N,N,20,21,41,204033.0,81347.0,-7.9412899999999995,51.9843,Mixed
482,17804L,S N CNOC NA MANACH,MINANE BRIDGE,CORK,,,Cork,CATHOLIC,N,N,N,65,66,131,174032.0,56736.0,-8.37616,51.7625,Mixed
483,17823P,GLANTANE B N S,GLANTANE,MALLOW,CO CORK,,Cork,CATHOLIC,N,N,N,88,66,154,147755.0,95408.0,-8.76264,52.1082,Mixed
484,17829E,S N ATH AN MHUILLINN,RATHLUIRC,CO CORK,,,Cork,CATHOLIC,N,N,N,42,45,87,141813.0,121143.0,-8.8538,52.3389,Mixed
485,17848I,S N MHUIRE,GLEANN AN PHREACHAIN,GLENVILLE,CO CORK,,Cork,CATHOLIC,N,N,N,95,78,173,170945.0,88232.0,-8.42353,52.0454,Mixed
486,17868O,SCOIL FREASTOGAIL MUIRE,FERMOY,CO CORK,,,Cork,CATHOLIC,N,N,N,72,181,253,181300.0,98124.0,-8.27313,52.1348,Mixed
487,17887S,S N NAOMH PADRAIG,MALLOW,CO CORK,,,Cork,CATHOLIC,N,N,N,199,0,199,156147.0,98714.0,-8.64058,52.1387,Male
488,17921P,S N MOING NA MIOL,CLASHBEE,MALLOW,CO CORK,,Cork,CATHOLIC,N,N,N,49,57,106,151236.0,87740.0,-8.71074,52.0396,Mixed
489,17950W,SHANAGARRY N S,SHANAGARRY,MIDLETON,CO CORK,,Cork,CATHOLIC,N,N,N,38,56,94,197569.0,66875.0,-8.03529,51.8542,Mixed
490,17955J,MUIRE GAN SMAL,CLUAIN DILLEAIN,FERMOY,CO CORK,,Cork,CATHOLIC,N,N,N,39,45,84,184782.0,99084.0,-8.22232,52.1435,Mixed
491,17972J,S N CILL MHUIRE B,LISARDAGH,CO CORK,,,Cork,CATHOLIC,N,N,N,83,72,155,139352.0,66206.0,-8.88013,51.8449,Mixed
492,18000W,NAOMH MHUIRE B,CARRIGTWOHILL,CO CORK,,,Cork,CATHOLIC,N,N,N,380,0,380,181917.0,72944.0,-8.262789999999999,51.9085,Male
493,18020F,S N AN GHARRAIN,UPTON,CO CORK,,,Cork,CATHOLIC,N,N,N,31,18,49,154785.0,64593.0,-8.65597,51.8319,Mixed
494,18100D,LISGRIFFIN N S,GOLEEN,SKIBBEREEN,CO CORK,,Cork,CATHOLIC,N,N,N,10,8,18,76434.0,26105.0,-9.77869,51.4743,Mixed
495,18128C,S N MHUIRE MXD,COISCEIM,MALLOW,CO CORK,,Cork,CATHOLIC,N,N,N,31,40,71,120545.0,103334.0,-9.16162,52.1762,Mixed
496,18196T,S N GLEANNAMHAIN,GLANWORTH,CO CORK,,,Cork,CATHOLIC,N,N,N,62,66,128,175542.0,104516.0,-8.35769,52.192,Mixed
497,18246I,S N BAILE MUINE,BALLINEEN,CO CORK,,,Cork,CHURCH OF IRELAND,N,N,N,18,17,35,134310.0,53726.0,-8.95093,51.7322,Mixed
498,18266O,BALLYGOWN NS,BALLYGOWN,MALLOW,CO CORK,,Cork,CATHOLIC,N,N,N,66,46,112,164510.0,104535.0,-8.51903,52.1916,Mixed
499,18279A,St Mary's Church of Ireland N.S,St Mary's Church of Ireland N.S,CARRIGALINE,CO. CORK.,,Cork,CHURCH OF IRELAND,N,N,N,110,103,213,173469.0,63016.0,-8.3848,51.8189,Mixed
500,18296A,DROMDHALLAGH N S,DRIMOLEAGUE,CO CORK,,,Cork,CATHOLIC,N,N,N,31,17,48,112823.0,46254.0,-9.26004,51.6621,Mixed
501,18301N,S N MHUIRE B,MILLSTREET,CO CORK,,,Cork,CATHOLIC,N,N,N,72,0,72,126786.0,90274.0,-9.06759,52.0597,Male
502,18316D,S N FHURSA,LADHAR,BANTEER,CO CORK,,Cork,CATHOLIC,N,N,N,30,39,69,141161.0,92421.0,-8.858369999999999,52.0807,Mixed
503,18377A,IOSEF NAOFA,FERMOY,CO CORK,,,Cork,CATHOLIC,N,Y,N,52,30,82,180865.0,99184.0,-8.27955,52.1443,Mixed
504,18422C,SCOIL NA NOG,GLEANN MAGHAIR,CO CHORCAI,,,Cork,CATHOLIC,N,N,N,28,44,72,172697.0,74104.0,-8.39687,51.9185,Mixed
505,18428O,S N BAILE NORA,BAILE NORA,WATERFALL,CO CORK,,Cork,CATHOLIC,N,N,N,168,139,307,161092.0,66973.0,-8.56475,51.8538,Mixed
506,18431D,SN DROICHEAD NA BANDAN,BANDON,CO CORK,,,Cork,CHURCH OF IRELAND,N,N,N,101,94,195,148579.0,54076.0,-8.74445,51.7368,Mixed
507,18444M,S N CLOGACH,CLOGLACH,TIMOLEAGUE,CO CORK,,Cork,CATHOLIC,N,N,N,35,31,66,144957.0,47232.0,-8.7958,51.675,Mixed
508,18461M,S N MUIRE NA DOIRINI,SKIBBEREEN,CO CORK,,,Cork,CATHOLIC,N,N,N,31,13,44,112424.0,39991.0,-9.26424,51.6058,Mixed
509,18468D,SCOIL MHUIRE,CAISLEAN UI DHONNABHAIN,DRIMOLEAGUE,CO CORK,,Cork,CATHOLIC,N,N,N,27,21,48,111542.0,49401.0,-9.27935,51.6902,Mixed
510,18472R,SCOIL CHAITRIONA,BALLYNOE,MALLOW,CO CORK,,Cork,CATHOLIC,N,N,N,62,43,105,192555.0,88954.0,-8.10854,52.0526,Mixed
511,18475A,S N BAILE UI CHROININ,CLOYNE,MIDDLETON,CO CORK,,Cork,CATHOLIC,N,N,N,18,13,31,191757.0,62784.0,-8.11955,51.8174,Mixed
512,18487H,S N NAOMH MHUIRE,FEARANN,CO CHORCAI,,,Cork,CATHOLIC,N,N,N,63,66,129,149151.0,69469.0,-8.73842,51.8752,Mixed
513,18491V,S N GARRAN AN EASAIGH,KILLBRITTAIN,CO CORK,,,Cork,CATHOLIC,N,N,N,36,29,65,155667.0,44100.0,-8.64057,51.6478,Mixed
514,18497K,LITTLE ISLAND NS,LITTLE ISLAND,CO. CORK,,,Cork,CATHOLIC,N,N,N,105,100,205,175088.0,72078.0,-8.36197,51.9004,Mixed
515,18535P,ST. JOHNS GIRLS N S,BALLEA RD,CARRIGALINE,CO CORK,,Cork,CATHOLIC,N,N,N,0,520,520,172571.0,62986.0,-8.39782,51.8186,Female
516,18549D,S N CNOC NA CROIGHE,CNOC NA GROIGHE,MALLOW,CO CORK,,Cork,CATHOLIC,N,N,N,31,44,75,117158.0,97515.0,-9.209710000000001,52.1234,Mixed
517,18567F,S N INIS,KILLEAGH,CO CORK,,,Cork,CATHOLIC,N,N,N,88,91,179,200646.0,81482.0,-7.9906,51.9855,Mixed
518,18657G,SCOIL NA MBRAITHRE,DONERAILE,CO CORK,,,Cork,CATHOLIC,N,N,N,54,0,54,160247.0,107927.0,-8.58177,52.2218,Male
519,18659K,LISAVAIRD MXD N S,CLONAKILTY,CO CORK,,,Cork,CATHOLIC,N,N,N,37,29,66,133876.0,38983.0,-8.95443,51.5996,Mixed
520,18713N,S N FIONAN NA REANNA,NOHOVAL,BELGOOLY,CO CORK,,Cork,CATHOLIC,N,N,N,72,40,112,174401.0,52800.0,-8.37053,51.7271,Mixed
521,18829J,S N CHOBH CHIONN TSAILE,CIONN TSAILE,CO CHORCAIGH,,,Cork,CATHOLIC,N,N,N,113,102,215,165289.0,50146.0,-8.50215,51.7028,Mixed
522,18883P,S N IOSAGAIN,MALA,CO CORK,,,Cork,CATHOLIC,N,N,N,73,92,165,156080.0,99229.0,-8.64162,52.1433,Mixed
523,19224D,S N CILLMIN,CILLMIN,COALNACONARTY,CLONAKILTY,CO CORK,Cork,CATHOLIC,N,N,N,76,69,145,130266.0,45861.0,-9.00789,51.661,Mixed
524,19249T,BARRYROE NS,LISLEVANE,BANDON,CO CORK,,Cork,CATHOLIC,N,N,N,110,85,195,148261.0,39772.0,-8.74693,51.6082,Mixed
525,19256Q,SCOIL GHOBNATAN,MALLOW,CO CORK,,,Cork,CATHOLIC,N,N,N,297,246,543,155805.0,97721.0,-8.645439999999999,52.1297,Mixed
526,19307H,DERRINAGREE N S,DERRINAGREE,MALLOW,CORK,,Cork,CATHOLIC,N,N,N,40,33,73,129107.0,97317.0,-9.035210000000001,52.1233,Mixed
527,19342J,SCOIL NAOMH EOIN BAISTE,KILBRIN,KANTURK,CO CORK,,Cork,CATHOLIC,N,N,N,41,58,99,143086.0,106830.0,-8.83271,52.2104,Mixed
528,19348V,NEWCESTOWN N S,NEWCESTOWN,BANDON,CO CORK,,Cork,CATHOLIC,N,N,N,99,108,207,140013.0,59202.0,-8.86933,51.7821,Mixed
529,19351K,S N CILL CRIODAIN,LADYSBRIDGE,CASTLEMARTYR,CO CORK,,Cork,CATHOLIC,N,N,N,128,144,272,201872.0,70595.0,-7.972810000000001,51.8877,Mixed
530,19381T,RATHMORE N S,BALTIMORE,SKIBBEREEN,CO CORK,,Cork,CATHOLIC,N,N,N,52,55,107,106150.0,28122.0,-9.35162,51.4981,Mixed
531,19404F,SN MHUIRE,BALLYHOOLEY,CO CORK,,,Cork,CATHOLIC,N,N,N,70,66,136,172703.0,99302.0,-8.39879,52.145,Mixed
532,19415K,SCOIL AN ATHAR TADHG,SCOIL AN ATHAR TADHG,CARRAIG NA BHFEAR,CO CHORCAI,,Cork,CATHOLIC,N,N,N,166,180,346,167224.0,82032.0,-8.47718,51.9895,Mixed
533,19420D,SN FHIACHNA,GLEANN GARBH,CO CHORCAI,,,Cork,CATHOLIC,N,N,N,24,20,44,92741.0,56556.0,-9.55337,51.7512,Mixed
534,19501D,CAHERMORE NEW CENTRAL S,Cahermore,Allihies,Beara,Co Cork,Cork,CATHOLIC,N,Y,N,28,26,54,57213.0,41195.0,-10.0613,51.6053,Mixed
535,19507P,SCOIL CHAITIGHEIRN,NA HAORAI,BEANNTRAI,CO CHORCAI,,Cork,CATHOLIC,N,Y,N,45,41,86,65026.0,50609.0,-9.95222,51.6918,Mixed
536,19525R,MHICHIL NAOFA,BALLINAKILLA,BERE ISLAND,BANTRY,CO CORK,Cork,CATHOLIC,Y,Y,N,14,6,20,69728.0,44187.0,-9.881860000000001,51.6352,Mixed
537,19526T,SN CILL DAIRBHRE,KILDORRERY,CO CORK,,,Cork,CATHOLIC,N,N,N,68,73,141,170985.0,110424.0,-8.42484,52.2449,Mixed
538,19557H,CAHERAGH NS,CAHERAGH,CO CORK,,,Cork,CATHOLIC,N,N,N,40,39,79,110027.0,42224.0,-9.29941,51.6255,Mixed
539,19595P,ST MARYS CENTRAL SCHOOL,ENNISKEANE,CO CORK,,,Cork,CATHOLIC,N,N,N,90,98,188,135260.0,54220.0,-8.93727,51.7367,Mixed
540,19637F,SCOIL FIONNBARRA,BEAL ATHA GHAORTHAIDH,CO CHORCAI,,,Cork,CATHOLIC,N,N,Y,56,30,86,115321.0,67231.0,-9.22905,51.851000000000006,Mixed
541,19672H,SCOIL MUIRE NA NGRAST,BEAL GUALA,CO CHORCAI,,,Cork,CATHOLIC,N,N,N,181,165,346,166074.0,54729.0,-8.49124,51.744,Mixed
542,19761G,DUNGOURNEY CENTRAL N SC,DUNGOURNEY,CO CORK,,,Cork,CATHOLIC,N,N,N,122,94,216,193442.0,79517.0,-8.09543,51.9678,Mixed
543,19771J,SCOIL BARRA,INNISHMORE,BAILE AN CHOLLAIGH,CO CHORCAI,,Cork,CATHOLIC,N,N,N,280,242,522,158290.0,71010.0,-8.6059,51.8898,Mixed
544,19801P,DRIMOLEAGUE JUNIOR SCH,DRIMOLEAGUE,CO CORK,,,Cork,CATHOLIC,N,N,N,33,24,57,112771.0,46260.0,-9.26079,51.6622,Mixed
545,19833F,"GAELSCOIL CHORAIN,","SRAID NA TRA,","EOCHAILL,",CO. CHORCAI.,,Cork,CATHOLIC,N,N,N,148,156,304,210843.0,77509.0,-7.842280000000001,51.9497,Mixed
546,19839R,GAEL SCOIL UI RIORDAIN,CUL RUA,BAILE AN CHOLLAIGH,CO CHORCAI,,Cork,CATHOLIC,N,N,N,306,271,577,157536.0,70742.0,-8.61682,51.8874,Mixed
547,19851H,GAELSCOIL DE HIDE,MAINISTIR FHEARMAI,CO CHORCAI,,,Cork,CATHOLIC,N,N,N,177,215,392,180906.0,98430.0,-8.27891,52.1375,Mixed
548,19881Q,GAELSCOIL CARRIG UI LEIGHINN,CARRIG UI LEIGHINN,CO CHORCAI,,,Cork,CATHOLIC,N,N,N,280,240,520,173358.0,63147.0,-8.38642,51.8201,Mixed
549,19886D,GAEL SCOIL THOMAIS DAIBHIS,MAGH EALLA,CO CHORCAI,,,Cork,CATHOLIC,N,N,N,170,155,325,156030.0,97191.0,-8.64209,52.125,Mixed
550,19899M,GAELSCOILE COBH,COBH,CO CHORCAI,,,Cork,CATHOLIC,N,N,N,97,91,188,180280.0,66881.0,-8.28623,51.8539,Mixed
551,19918N,DRINAGH MIXED NS,DUNMANWAY,CO CORK,,,Cork,CATHOLIC,N,N,N,25,32,57,120589.0,44867.0,-9.1475,51.6508,Mixed
552,19977G,BANDON BOYS NS,BANDON,CO CORK,,,Cork,CATHOLIC,N,Y,N,214,2,216,148704.0,55418.0,-8.74283,51.7489,Mixed
553,19978I,MAULATRAHANE CENTRAL NS,LEAP,SKIBBEREEN,CO CORK,,Cork,CATHOLIC,N,N,N,24,18,42,116821.0,37975.0,-9.2003,51.5883,Mixed
554,19989N,SCOIL MHUIRE NA TROCAIRE,CILL NA MULLACH,CO CHORCAI,,,Cork,CATHOLIC,N,Y,N,99,101,200,154268.0,108712.0,-8.669369999999999,52.2284,Mixed
555,20001N,GAELSCOIL BHEANNTRAI,"TIGH WARNER,","SRAID NA BEARAICE,","BEANNTRAI,",CO. CHORCAI.,Cork,CATHOLIC,N,N,N,72,82,154,99842.0,48430.0,-9.44823,51.6795,Mixed
556,20004T,SCOIL AN CROI RO NAOFA,"CASTLETOWNBERE,",CO. CORK.,,,Cork,CATHOLIC,N,Y,N,103,102,205,67827.0,46105.0,-9.91003,51.652,Mixed
557,20006A,Gaelscoil Mhichíl Uí Choileáin,"SRAID NA SCOILE,","CLOICH NA COILLTE,",CO. CHORCAI.,,Cork,MULTI DENOMINATIONAL,N,N,N,143,175,318,138706.0,41243.0,-8.885110000000001,51.6205,Mixed
558,20009G,GAELSCOIL DR M UI SHUILLEABHAIN,AN  SCIOBAIRIN,CO CHORCAI,,,Cork,CATHOLIC,N,N,N,33,33,66,112747.0,34142.0,-9.25813,51.5533,Mixed
559,20022V,SCOIL NA MBUACHAILLI,"CLOICH NA COILLTE,",CO. CHORCAI.,,,Cork,CATHOLIC,N,N,N,259,0,259,138298.0,41230.0,-8.891,51.6203,Male
560,20024C,BUN SCOIL MUIRE,O'BRIEN'S PLACE,YOUGHAL,CO CORK,,Cork,CATHOLIC,N,N,N,247,227,474,210774.0,77253.0,-7.84329,51.9474,Mixed
561,20025E,GAELSCOIL DROICHEAD NA BANNDAN,Cloughmacsimon,Bandon Bypass,Co Cork,,Cork,CATHOLIC,N,N,N,63,79,142,148804.0,54220.0,-8.74121,51.7381,Mixed
562,20049S,RINGASKIDDY LOWER HARBOUR N S,RINGASKIDDY,CO. CORK.,,,Cork,CATHOLIC,N,Y,N,40,37,77,177832.0,63559.0,-8.32155,51.824,Mixed
563,20088F,"SCOIL MHUIRE N.S.,",SCHULL,CO CORK,,,Cork,CATHOLIC,N,N,N,78,73,151,92781.0,31768.0,-9.5452,51.5285,Mixed
564,20105C,STAR OF THE SEA PRIMARY SCHOOL,PASSAGE WEST,CO CORK,,,Cork,CATHOLIC,N,N,N,210,184,394,176413.0,69238.0,-8.34252,51.875,Mixed
565,20107G,GAELSCOIL MHAINISTIR NA CORANN,IONAD AN PHOBAIL,MAINISTIR NA CORANN,CONTAE CHORCAI,,Cork,CATHOLIC,N,N,N,242,200,442,188128.0,73009.0,-8.17253,51.9092,Mixed
566,20151J,GAELSCOIL MHUSCRAÍ,C/O BLARNEY UNITED SOCCER CLUB,PAIRC RADHARC NA HABHAINN,"TEAMHAIR, AN BHLÁRNA,",CO CHORCAÍ,Cork,CATHOLIC,N,N,N,63,68,131,161346.0,75767.0,-8.56204,51.9328,Mixed
567,20182U,ST ENDAS NS,KILNADUR,DUNMANWAY,CO CORK,,Cork,CATHOLIC,N,N,N,24,16,40,124714.0,59325.0,-9.09103,51.7813,Mixed
568,20204E,Scoil Mháirtin,Kilworth,CO CORK,,,Cork,CATHOLIC,N,N,N,139,136,275,183578.0,102300.0,-8.24006,52.1724,Mixed
569,20222G,SCOIL CHUIL  AODHA  BARR D INSE,CUIL - AODHA,MAGHCROMTHA,CO. CHORCAIGH,,Cork,CATHOLIC,N,N,Y,30,27,57,116098.0,75827.0,-9.21987,51.9284,Mixed
570,20239A,GAELSCOIL UI DRISCEOIL,DUNKETTLE,GLANMIRE,,CO. CORK,Cork,MULTI DENOMINATIONAL,N,N,N,177,172,349,171255.0,75407.0,-8.41794,51.9302,Mixed
571,20265B,Gaelscoil Chionn tSáile,Cappagh,Cionn tSáile,Co Chorcaí,,Cork,CATHOLIC,N,N,N,95,94,189,162850.0,50652.0,-8.53749,51.7072,Mixed
572,20310D,Educate Together Carrigaline,Rosemount,Heron's Wood,Carrigaline Co Cork,,Cork,MULTI DENOMINATIONAL,N,N,N,145,110,255,173543.0,63677.0,-8.38378,51.8249,Mixed
573,20335T,Scoil Phadraig Naofa,Foxwood,Rochestown,,Co. Cork,Cork,CATHOLIC,N,N,N,180,171,351,172273.0,68573.0,-8.40259,51.8688,Mixed
574,20336V,Midleton Educate Together School,Market Green,Midleton,Co Cork,,Cork,MULTI DENOMINATIONAL,N,N,N,140,138,278,188556.0,74112.0,-8.16635,51.9192,Mixed
575,20399W,Scoil Chroí Íosa,St Anne's Road,Blarney,Co. Cork,,Cork,CATHOLIC,N,N,N,135,149,284,160772.5,75889.17,-8.5704,51.9339,Mixed
576,20413N,Douglas Rochestown Educate Together National School,c/o Douglas Hall AFC,Moneygourney,County Cork,,Cork,MULTI DENOMINATIONAL,N,N,N,10,8,18,172440.38,67611.43,-8.40008,51.8602,Mixed
577,20435A,Scoil Naomh Eltin,Kinsale,Co Cork,,,Cork,CATHOLIC,N,N,N,85,94,179,163670.47,50328.86,-8.52558,51.7043,Mixed
578,01572D,S N NAOMH PADRAIG,DRUMFRIES P O,CLONMANY,CO DONEGAL,,Donegal,CATHOLIC,N,N,N,30,31,61,238664.0,439251.0,-7.39275,55.1988,Mixed
579,01574H,SCOIL NAOMH IÓSAF,BALLYMAGAN,BUNCRANA,CO. DONEGAL,,Donegal,CATHOLIC,N,N,N,36,25,61,241219.0,434617.0,-7.3533,55.157,Mixed
580,01733B,ARDARA MIXED N S,ARDARA,CO DONEGAL,,,Donegal,CHURCH OF IRELAND,N,Y,N,14,11,25,173567.0,390757.0,-8.410689999999999,54.763999999999996,Mixed
581,03294L,S N CAISEAL NA GCORR,GORT A CHOIRCE,LEITIR CEANAINN,CO DHUN NA NGALL,,Donegal,CATHOLIC,N,Y,Y,17,19,36,191821.0,426793.0,-8.1281,55.0884,Mixed
582,04809A,SCOIL AN AINGIL CHOIMHEADAI,AN CHEIDIDH,BURTONPORT,LEITIR CEANAINN,CO DHUN NA NGALL,Donegal,CATHOLIC,N,Y,Y,18,18,36,173242.0,416749.0,-8.41815,54.9975,Mixed
583,05164I,SCOIL NAOMH CHOLMCILLE,OILEAN THORAI,AN BHUN BHIG,CO DHUN NA NGALL,,Donegal,CATHOLIC,Y,Y,Y,5,6,11,185772.0,446473.0,-8.22383,55.265,Mixed
584,05230S,COMHSCOIL CHONMHA S N,CONVOY,LIFFORD,CO DONEGAL,,Donegal,CHURCH OF IRELAND,N,N,N,43,31,74,221510.0,401406.0,-7.6650100000000005,54.8599,Mixed
585,07143K,MONREAGH N S,MONREAGH,CARRIGANS LIFFORD,CO DONEGAL,,Donegal,PRESBYTERIAN,N,Y,N,24,14,38,234829.0,412223.0,-7.4562800000000005,54.9563,Mixed
586,07464H,BROWNEKNOWE N S,BROWNKNOWE,RAMELTON,CO DONEGAL,,Donegal,PRESBYTERIAN,N,N,N,32,26,58,224222.0,423751.0,-7.620889999999999,55.0605,Mixed
587,07626H,S N AN IORBALL RIABAIGH,BAILE UI GHORMAIN,LETHBHEARR,TIR CHONAILL,,Donegal,CATHOLIC,N,Y,N,27,25,52,245245.0,454584.0,-7.28693,55.336000000000006,Mixed
588,09009Q,ROCKFIELD N S,ROCKFIELD BALLYSHANNON,CO DONEGAL,,,Donegal,CATHOLIC,N,N,N,17,23,40,192317.0,359417.0,-8.11855,54.4831,Mixed
589,09660R,ST FRANCIS NS,BARNESMORE,DONEGAL TOWN,CO DONEGAL,,Donegal,CATHOLIC,N,N,N,87,85,172,197935.0,381816.0,-8.03202,54.6844,Mixed
590,09748I,GLENMAQUIN NO 2 N S,KNOCKBRACK,LETTERKENNY,CO DONEGAL,,Donegal,PRESBYTERIAN,N,Y,N,5,11,16,221471.0,406408.0,-7.66524,54.9048,Mixed
591,10062E,CREESLOUGH N S,CREESLOUGH,CO DONEGAL,,,Donegal,CHURCH OF IRELAND,N,Y,N,12,12,24,205890.0,430653.0,-7.9076699999999995,55.1231,Mixed
592,10595Q,KILBARRON N S,KILBARRON,BALLYSHANNON,CO DONEGAL,,Donegal,CHURCH OF IRELAND,N,N,N,11,10,21,188332.0,361161.0,-8.18011,54.4987,Mixed
593,11843O,S N NEILL MOR,KILLYBEGS,CO DONEGAL,,,Donegal,CATHOLIC,N,N,N,112,71,183,171604.0,376794.0,-8.43983,54.6384,Mixed
594,12077E,SCOIL NAOMH FIACHRA,Illistrin,Letterkenny,Co. Donegal,,Donegal,CATHOLIC,N,N,N,253,224,477,217215.0,416511.0,-7.730989999999999,54.9958,Mixed
595,13563S,S N CHILL COINNIGH,CILL CHOINNIGH,GLENTIES,CO DONEGAL,,Donegal,CATHOLIC,N,Y,N,17,8,25,177802.0,398186.0,-8.345460000000001,54.8309,Mixed
596,13755E,GARTAN N S,GARTAN,LETTERKENNY,CO DONEGAL,,Donegal,CHURCH OF IRELAND,N,Y,N,7,8,15,206523.0,417484.0,-7.89805,55.0048,Mixed
597,13872I,ROBERTSON N S,BALLINTRA,CO DONEGAL,,,Donegal,CHURCH OF IRELAND,N,N,N,29,33,62,192079.0,370137.0,-8.12251,54.5794,Mixed
598,14194S,SCOIL CHOLMCILLE,AN TEARMANN,CO DUN NA NGALL,,,Donegal,CATHOLIC,N,Y,Y,78,61,139,210731.0,422477.0,-7.832089999999999,55.0495,Mixed
599,14502D,SCOIL MHUIRE B&C,DOIRE BEAGA,LEITIR CEANAINN,CO DHUN NA NGALL,,Donegal,CATHOLIC,N,Y,Y,73,74,147,181848.0,425490.0,-8.28422,55.0764,Mixed
600,14631O,SCOIL CHOLMCHILLE,MALIN,LIFFORD,CO DONEGAL,,Donegal,CATHOLIC,N,Y,N,45,50,95,251980.0,452999.0,-7.1811,55.3211,Mixed
601,14704P,MURROE NATIONAL SCHOOL,MURROE,DUNFANAHY,CO DONEGAL,,Donegal,CATHOLIC,N,Y,N,14,7,21,199313.0,434052.0,-8.01078,55.1536,Mixed
602,14910S,CASTLEFIN 1 B N S,CASTLEFIN,CO DONEGAL,,,Donegal,CATHOLIC,N,N,N,91,72,163,226084.0,395119.0,-7.594339999999999,54.8032,Mixed
603,14941G,RAY N S,RAY,MANORCUNNINGHAM,CO DONEGAL,,Donegal,CHURCH OF IRELAND,N,N,N,28,37,65,224518.0,410049.0,-7.617430000000001,54.9374,Mixed
604,15170J,CASHELSHANAGHAN N S,BALLYMALEEL P O,LETTERKENNY,CO DONEGAL,,Donegal,PRESBYTERIAN,N,N,N,21,21,42,221750.0,417075.0,-7.660089999999999,55.0007,Mixed
605,15208I,S N NA SRAITHE MOIRE,MIN A LABAIN,LEITIR CEANAINN,CO DHUN NA NGALL,,Donegal,CATHOLIC,N,Y,Y,42,49,91,202144.0,413319.0,-7.96652,54.9674,Mixed
606,15532R,CROAGHROSS N S,PORTSALON,LETTERKENNY,CO DONEGAL,,Donegal,CATHOLIC,N,Y,N,16,9,25,223594.0,439976.0,-7.62937,55.2063,Mixed
607,15554E,GORTNACART N S,GORTNACART,ARDARA,CO DONEGAL,,Donegal,CATHOLIC,N,Y,N,14,14,28,176513.0,390774.0,-8.36492,54.7643,Mixed
608,15627F,ST MURAS N S,BURNFOOT,LIFFORD,CO DONEGAL,,Donegal,CATHOLIC,N,N,N,99,108,207,236198.0,424375.0,-7.43337,55.0654,Mixed
609,15729N,RATHMULLEN N S,RATHMULLEN,CO DONEGAL,,,Donegal,CATHOLIC,N,Y,N,40,38,78,229335.0,427673.0,-7.54046,55.0955,Mixed
610,15763N,MOVILLE N S,MOVILLE,CO DONEGAL,,,Donegal,CHURCH OF IRELAND,N,N,N,16,21,37,261443.0,438522.0,-7.035189999999999,55.19,Mixed
611,15770K,S N NAOMH  NAILLE,NA CAOLOGA,INVER,CO DONEGAL,,Donegal,CATHOLIC,N,N,N,43,37,80,182169.0,378718.0,-8.27631,54.6562,Mixed
612,15847T,S N LEITIR MHIC AN  BHAIRD,LEITHBHEARR,CO DHUN NA NGALL,,,Donegal,CATHOLIC,N,N,Y,16,18,34,180595.0,401107.0,-8.30219,54.8573,Mixed
613,15955W,SN ARAINN MHOR I,ARAINN MOR,CO DHUN NA NGALL,,,Donegal,CATHOLIC,Y,Y,Y,18,18,36,168382.0,415432.0,-8.49395,54.9854,Mixed
614,16054M,ST PATRICKS N S,MURLOG,LIFFORD,CO DONEGAL,,Donegal,CATHOLIC,N,Y,N,103,73,176,232043.0,399529.0,-7.501180000000001,54.8425,Mixed
615,16108J,SCOIL NAOMH TREASA C,TIERNASLIGO CLONMANY,LIFFORD,CO DONEGAL,,Donegal,CATHOLIC,N,N,N,31,29,60,231968.0,446910.0,-7.497039999999999,55.2681,Mixed
616,16137Q,DRUMFAD N S,BALLYNASHANAGH P O,LETTERKENNY,CO DONEGAL,,Donegal,PRESBYTERIAN,N,N,N,12,14,26,222909.0,436947.0,-7.64037,55.1791,Mixed
617,16138S,RAPHOE CENTRAL N S,RAPHOE,LIFFORD,CO DONEGAL,,Donegal,CHURCH OF IRELAND,N,Y,N,96,87,183,225841.0,403133.0,-7.597410000000001,54.8752,Mixed
618,16242N,S N  DUMHACH BEAG,DUMHACH BEAG,BAILE LAIR,CO DUN NA NGALL,,Donegal,CATHOLIC,N,N,Y,5,5,10,223969.0,444305.0,-7.6231100000000005,55.2452,Mixed
619,16279N,SCOIL CHOLUIM,"BALLYHEERIN,FANAD",LETTERKENNY,CO DONEGAL,,Donegal,CATHOLIC,N,Y,N,9,12,21,217425.0,438817.0,-7.72635,55.1961,Mixed
620,16349I,S N AN DROIM MOR,AN DROIM MOR,KILLYGORDON,CO DONEGAL,,Donegal,CATHOLIC,N,Y,N,87,93,180,220346.0,393762.0,-7.683669999999999,54.7913,Mixed
621,16357H,S N FHIONNTRA,FINTRA,KILLYBEGS,CO DONEGAL,,Donegal,CATHOLIC,N,N,N,30,29,59,168810.0,376883.0,-8.48311,54.6391,Mixed
622,16375J,FROSSES N S,FROSSES,INVER,CO DONEGAL,,Donegal,CATHOLIC,N,Y,N,45,49,94,184323.0,380160.0,-8.24301,54.6692,Mixed
623,16384K,SN ARAINN MHOR II,ARAINN MHOR,CO DHUN NA NGALL,,,Donegal,CATHOLIC,Y,Y,Y,5,7,12,166657.0,414171.0,-8.52075,54.9739,Mixed
624,16458N,INVER N S,INVER,CO DONEGAL,,,Donegal,CHURCH OF IRELAND,N,N,N,16,12,28,182378.0,378345.0,-8.27304,54.6529,Mixed
625,16471F,ST DAVADOGS N S,TAMNEY,LETTERKENNY,CO DONEGAL,,Donegal,CATHOLIC,N,Y,N,19,15,34,219837.0,439359.0,-7.68843,55.2009,Mixed
626,16603T,S N AN CHILLIN,AN CILLIN,INVER,CO DONEGAL,,Donegal,CATHOLIC,N,Y,N,14,9,23,183094.0,382031.0,-8.26216,54.68600000000001,Mixed
627,16608G,KILLYBEGS COMMON N S,THE COMMONS,KILLYBEGS,CO DONEGAL,,Donegal,CATHOLIC,N,N,N,46,63,109,172449.0,378706.0,-8.426919999999999,54.6557,Mixed
628,16611S,GLENTOGHER CON N S,CARNDONAGH,CO DONEGAL,,,Donegal,CATHOLIC,N,N,N,15,18,33,246799.0,441845.0,-7.26456,55.2214,Mixed
629,16642G,CLONMANY MXD NS,CLONMANEY,LIFFORD,CO DONEGAL,,Donegal,CATHOLIC,N,N,N,73,73,146,237408.0,446362.0,-7.41153,55.2628,Mixed
630,16664Q,BRUCKLESS N S,BRUCKLESS,CO DONEGAL,,,Donegal,CATHOLIC,N,N,N,12,10,22,174854.0,377021.0,-8.389510000000001,54.6407,Mixed
631,16671N,S N CNOC NA NAOMH,GORT A CHOIRCE,LEITIR CEANAINN,CO DHUN NA NGALL,,Donegal,CATHOLIC,N,Y,Y,46,59,105,188479.0,431389.0,-8.18063,55.1296,Mixed
632,16672P,ST PATRICKS N S,LURGYBRACK,LETTERKENNY,CO DONEGAL,,Donegal,CATHOLIC,N,N,N,248,204,452,219561.0,409464.0,-7.69481,54.9324,Mixed
633,16763S,S N GLASAIN,CRAOSLOCH,LEITIRCEANAINN,CO DHUN NA NGALL,,Donegal,CATHOLIC,N,N,Y,13,22,35,203379.0,428176.0,-7.9470600000000005,55.1008,Mixed
634,16789N,ST ORANS N S,BUNCRANA,CO DONEGAL,,,Donegal,CATHOLIC,N,N,N,123,99,222,235675.0,433849.0,-7.44037,55.1505,Mixed
635,16819T,S N GORT AN CHOIRCE,LEITIR CEANAINN,CO DHUN NA NGALL,,,Donegal,CATHOLIC,N,N,Y,36,29,65,191464.0,430373.0,-8.1338,55.1205,Mixed
636,16820E,Scoil Cholmcille,Newtowncunningham,Co. Donegal,,,Donegal,CATHOLIC,N,Y,N,126,106,232,230987.0,416765.0,-7.51577,54.9974,Mixed
637,16821G,CLOCHAR PADRAIG NAOFA,CARNDONAGH,CO DONEGAL,,,Donegal,CATHOLIC,N,Y,N,0,178,178,246776.0,444561.0,-7.264480000000001,55.2458,Female
638,16823K,MIN A GHABHANN N S,LETTERMACAWARD,DONEGAL,,,Donegal,CATHOLIC,N,Y,Y,10,10,20,179122.0,400434.0,-8.32508,54.8512,Mixed
639,16829W,S N LOCH AN IUBHAIR,ANAGAIRE,LEITIR CEANAINN,TIR CHONAILL,,Donegal,CATHOLIC,N,Y,Y,23,19,42,181304.0,417315.0,-8.2922,55.0029,Mixed
640,16836T,NAOMH BRIDHID,GLENMAKEE,CARNDONAGH,CO DONEGAL,,Donegal,CATHOLIC,N,Y,N,56,43,99,243916.0,447328.0,-7.309010000000001,55.2709,Mixed
641,16837V,S N DUCHORAIDH,DUCHORAIDH,CO DHUN NA NGALL,,,Donegal,CATHOLIC,N,Y,Y,15,7,22,186757.0,406711.0,-8.206489999999999,54.9078,Mixed
642,16850N,ST GARVANS N.S.,DRUM HALLA,RATHMAOLAIN,LETTERKENNY,CO DONEGAL,Donegal,CATHOLIC,N,Y,N,19,12,31,228291.0,432306.0,-7.55635,55.1371,Mixed
643,16854V,BUNCRANA N S,BUNCRANA,CO DONEGAL,,,Donegal,CHURCH OF IRELAND,N,N,N,16,17,33,234754.0,431973.0,-7.45505,55.1337,Mixed
644,16869L,S N AN BHREACAIGH,ARD A RATHA,CO DHUN NA NGALL,,,Donegal,CATHOLIC,N,N,N,21,25,46,172188.0,388839.0,-8.43193,54.7467,Mixed
645,16880W,SCOIL NAOMH COLMCHILLE,CRAIGTOWN,CARNDONAGH,CO DONEGAL,,Donegal,CATHOLIC,N,Y,N,67,61,128,249197.0,443534.0,-7.22659,55.2364,Mixed
646,16903I,S N FOTHAR,PORT NA BLAITHCHE,LEITIR CEANAINN,CO DUN NA NGALL,,Donegal,CATHOLIC,N,N,N,18,28,46,205093.0,435421.0,-7.9200800000000005,55.1659,Mixed
647,16995Q,S N NAOMH COLMCHILLE,DRUMOGHILL NS,MANORCUNNINGHAM,LETTERKENNY,CO DONEGAL,Donegal,CATHOLIC,N,Y,N,38,36,74,225832.0,410037.0,-7.59693,54.9372,Mixed
648,17018N,SCOIL PHADRAIG,DOBHAR,AN BUN BEAG,LEITIRCEANAINN,CO DHUN NA NGALL,Donegal,CATHOLIC,N,Y,Y,37,54,91,183695.0,421157.0,-8.25505,55.0375,Mixed
649,17035N,S N MHIN TEINEADH DE,ARD A RATHA,CO DHUN NA NGALL,,,Donegal,CATHOLIC,N,N,N,22,21,43,176856.0,388256.0,-8.35939,54.7417,Mixed
650,17036P,S N NAOMH COLMCHILLE,KILLMACRENNAN,CO DONEGAL,,,Donegal,CATHOLIC,N,N,N,123,97,220,214024.0,420062.0,-7.78068,55.0278,Mixed
651,17040G,SN NAOMH SAMHTHANN,DRUMDOIT,CASTLEFIN,CO DONEGAL,,Donegal,CATHOLIC,N,N,N,41,51,92,227640.0,392306.0,-7.570410000000001,54.7778,Mixed
652,17057A,Scoil Phádraig,Drumkeen,Ballybofey,Lifford,Co. Donegal,Donegal,CATHOLIC,N,N,N,68,62,130,215610.0,402189.0,-7.75685,54.8672,Mixed
653,17122I,SN EADAN FHIONNFHAOICH,NA GLEANNTA,CO DHUN NA NGALL,,,Donegal,CATHOLIC,N,N,Y,12,9,21,189113.0,393974.0,-8.16927,54.7935,Mixed
654,17130H,SCOIL NAOMH DUBHTHACH,MACHAIRE UI RABHARTAIGH,GORT A CHOIRCE,LEITIR CEANAINN,CO DHUN NA NGALL,Donegal,CATHOLIC,N,Y,Y,24,21,45,188725.0,432992.0,-8.176839999999999,55.144,Mixed
655,17180W,S N NA GCLUAINTE,CLONMANY,CO DONEGAL,,,Donegal,CATHOLIC,N,N,N,71,55,126,239172.0,444915.0,-7.38399,55.2497,Mixed
656,17241Q,S N DOMHNACH MOR,CASTLEFIN,LIFFORD,CO DONEGAL,,Donegal,CHURCH OF IRELAND,N,N,N,18,23,41,223169.0,394841.0,-7.6397,54.8008,Mixed
657,17260U,SCOIL AN LEINBH IOSA,KILLYMARD,DONEGAL TOWN,CO DONEGAL,,Donegal,CATHOLIC,N,N,N,106,108,214,193350.0,380206.0,-8.10308,54.6699,Mixed
658,17268N,SN AN BR M O CLEIRIGH,CREEVY,BALLYSHANNON,CO DONEGAL,,Donegal,CATHOLIC,N,N,N,110,86,196,185351.0,363591.0,-8.226239999999999,54.5204,Mixed
659,17328F,SCOIL ROISIN,AN CLOCHAN LIATH,CO DHUN NA NGALL,,,Donegal,CATHOLIC,N,Y,Y,31,27,58,173248.0,409565.0,-8.41738,54.9329,Mixed
660,17447N,S N  CRANNAIGHE BUIDHE,CRANNOG BUI,ARDARA,CO DONEGAL,,Donegal,CATHOLIC,N,Y,N,13,14,27,169238.0,391589.0,-8.47803,54.7712,Mixed
661,17469A,SCOIL CUILM CILLE,BALLINDRAIT,LIFFORD,CO DONEGAL,,Donegal,CATHOLIC,N,Y,N,12,22,34,227963.0,399675.0,-7.56468,54.843999999999994,Mixed
662,17503U,S N ADHAMHNAIN,LUINNEACH,DOIRI BEAGA,CO DHUN NA NGALL,,Donegal,CATHOLIC,N,Y,Y,84,63,147,182236.0,427820.0,-8.27829,55.0973,Mixed
663,17549V,S N CEATHRU CAOL,KERRYKEEL,LIFFORD,CO DONEGAL,,Donegal,CATHOLIC,N,Y,N,53,53,106,221633.0,432366.0,-7.66075,55.138000000000005,Mixed
664,17552K,SCOIL BHRIGHDE,PORTHALL,LIFFORD,CO DONEGAL,,Donegal,CATHOLIC,N,Y,N,16,18,34,234204.0,402945.0,-7.46714,54.873000000000005,Mixed
665,17553M,S N TAODHBHOG,AN CLOCHAN,LEIFEARR,CO DHUN NA NGALL,,Donegal,CATHOLIC,N,Y,Y,31,33,64,204458.0,398848.0,-7.930610000000001,54.8374,Mixed
666,17564R,S N AN CHOIMIN,CLOCHAN,LEITHBHEARR,CO DHUN NA NGALL,,Donegal,CATHOLIC,N,Y,Y,43,26,69,202094.0,396971.0,-7.96742,54.8205,Mixed
667,17575W,S N GLEANN COIMHEAD,BALLYBOFEY,CO DONEGAL,,,Donegal,CATHOLIC,N,N,N,39,31,70,215441.0,392809.0,-7.7599800000000005,54.7829,Mixed
668,17598L,SN AN LEINBH IOSA,COXTOWN,CARRIGANS,CO DONEGAL,,Donegal,CATHOLIC,N,Y,N,38,30,68,235677.0,411878.0,-7.44309,54.9532,Mixed
669,17607J,S N SEISEADH UI NEILL,BALLYBOFEY,CO DONEGAL,,,Donegal,CATHOLIC,N,N,N,100,105,205,213642.0,393427.0,-7.78792,54.7885,Mixed
670,17704H,S N FHIONNAIN,BAILE CHONAILL,AN FALCARRACH,CO DHUN NA NGALL,,Donegal,CATHOLIC,N,Y,Y,99,80,179,193918.0,432355.0,-8.09538,55.1384,Mixed
671,17716O,ST RIAGHANS NS,DRIMNACROSH,KILRAINE P.O.,CO DONEGAL,,Donegal,CATHOLIC,N,Y,N,23,13,36,179239.0,391384.0,-8.322610000000001,54.7699,Mixed
672,17721H,SCOIL TREASA NAOFA,MALAINN,LIFFORD,CO DONEGAL,,Donegal,CATHOLIC,N,Y,N,43,35,78,242203.0,457403.0,-7.33445,55.3616,Mixed
673,17728V,S N TALAMH NA COILLE,TALAMH NA COILLE,LETTERKENNY,CO DONEGAL,,Donegal,CATHOLIC,N,N,N,260,230,490,220764.0,414648.0,-7.675669999999999,54.9789,Mixed
674,17729A,SCOIL NAOMH PROINNSEAS,MAGHERABEG,MANORCUNNINGHAM,LETTERKENNY,CO. DONEGAL,Donegal,CATHOLIC,N,Y,N,54,38,92,224899.0,413614.0,-7.6111699999999995,54.9694,Mixed
675,17822N,SCOIL BHRIGHDE,MIN A CHLADHAIGH,GORT A CHOIRCE,CO DHUN NA NGALL,,Donegal,CATHOLIC,N,Y,Y,8,12,20,185482.0,432651.0,-8.22768,55.1408,Mixed
676,17828C,SCOIL ADHAMHNAIN,RATHBHOTH,LEITHBHEARR,CO DHUN NA NGALL,,Donegal,CATHOLIC,N,Y,N,88,81,169,225379.0,402675.0,-7.60464,54.8711,Mixed
677,17831O,GLEBE NS,THE GLEBE,DUN NA NGALL,CO DHUN NA NGALL,,Donegal,CHURCH OF IRELAND,N,N,N,44,46,90,192955.0,378061.0,-8.10915,54.6506,Mixed
678,17837D,SCOIL MHUIRE,PETTIGO,CO DONEGAL,,,Donegal,CATHOLIC,N,Y,N,30,28,58,210517.0,366478.0,-7.83747,54.5465,Mixed
679,17945G,SCOIL NAOMH CHAITRIONA,BALLYSHANNON,CO DONEGAL,,,Donegal,CATHOLIC,N,Y,N,35,32,67,188028.0,361527.0,-8.18482,54.5019,Mixed
680,17956L,SCOIL CHOLMCILLE NAOFA,BALLYLAST,CASTLEFIN,CO DONEGAL,,Donegal,CATHOLIC,N,N,N,27,29,56,229798.0,395298.0,-7.536569999999999,54.8046,Mixed
681,18007N,S N OLIBHEAR PLUINCEID,RANN NA FEIRSTE,ANAGAIRE,CO DHUN NA NGALL,,Donegal,CATHOLIC,N,N,Y,44,43,87,179824.0,421205.0,-8.315610000000001,55.0378,Mixed
682,18052S,S N MUIRE GAN SMAL,CLOCHAR LORETO,LEITIR CEANAINN,CO DHUN NA NGALL,,Donegal,CATHOLIC,N,N,N,0,470,470,216613.0,411668.0,-7.74068,54.9523,Female
683,18058H,SCOIL NAOMH SEOSAMH,RATHDOMHNAILL,TREANTACH,CO DUN NA NGALL,,Donegal,CATHOLIC,N,N,N,17,18,35,212249.0,416240.0,-7.8086,54.9935,Mixed
684,18076J,SCOIL NÁISIÚNTA MUIRE GAN SMÁL,TOWNPARKS,LIFFORD,CO. DONEGAL,,Donegal,CATHOLIC,N,Y,N,56,52,108,233120.0,398075.0,-7.48459,54.8293,Mixed
685,18086M,DUNFANAGHY N S,DUNFANAGHY,CO DONEGAL,,,Donegal,CHURCH OF IRELAND,N,Y,N,13,18,31,201584.0,437259.0,-7.97513,55.1824,Mixed
686,18114O,S N NAOMH EIGHNEACH,DISEART EIGHNIGH,BUNCRANNACH,CO DUN NA NGALL,,Donegal,CATHOLIC,N,Y,N,47,48,95,230897.0,437890.0,-7.514880000000001,55.1872,Mixed
687,18120J,SCOIL MHUIRE,CAISEAL CEANNDROMA,CO DHUN NA NGALL,,,Donegal,CATHOLIC,N,N,Y,27,34,61,217665.0,442587.0,-7.722339999999999,55.23,Mixed
688,18129E,SCOIL NAOMH PEADAR,MOUNTCHARLES,CO DUN NA NGALL,,,Donegal,CATHOLIC,N,N,N,55,43,98,187325.0,377413.0,-8.19635,54.6446,Mixed
689,18131O,S N MUIRE GAN SMAL,ARD ARATHA,CO DUN NA NGALL,,,Donegal,CATHOLIC,N,Y,N,19,15,34,173872.0,390793.0,-8.40595,54.7643,Mixed
690,18151U,S N MHUIRE,BAILE AN NGALLOGLACH,LETTERKENNY,CO DONEGAL,,Donegal,CATHOLIC,N,Y,N,88,70,158,218958.0,427027.0,-7.703060000000001,55.0902,Mixed
691,18172F,GLENEELY N S,GLEANN AN FHAOILIDH,KILLYGORDAN,CO DONEGAL,,Donegal,CATHOLIC,N,N,N,56,55,111,220362.0,391064.0,-7.683610000000001,54.766999999999996,Mixed
692,18219F,SN CHONAILL,MACHAIRE CHLOCHAIR,BUN BEAG,CO DHUN NA NGALL,,Donegal,CATHOLIC,N,Y,Y,46,26,72,180971.0,423704.0,-8.297830000000001,55.0603,Mixed
693,18241V,SCOIL NAOMH CHOLMCILLE,DRUMMAN,RAMELTON,CO DONEGAL,,Donegal,CATHOLIC,N,Y,N,50,45,95,218935.0,421662.0,-7.70378,55.042,Mixed
694,18250W,S N BAILE MOR,DUNFANAGHY PO,LETTERKENNY,CO DONEGAL,,Donegal,CHURCH OF IRELAND,N,Y,N,13,19,32,204998.0,434773.0,-7.9215800000000005,55.1601,Mixed
695,18251B,AYR HILL N S RAMELTON,RAMELTON,LETTERKENNY,CO DONEGAL,,Donegal,PRESBYTERIAN,N,N,N,18,18,36,222642.0,421015.0,-7.64583,55.036,Mixed
696,18286U,S N NA HACRAI,AILT AN CHORRAIN,LEITIRCEANAINN,CO DHUN NA NGALL,,Donegal,CATHOLIC,N,Y,Y,45,43,88,172964.0,415013.0,-8.42233,54.9819,Mixed
697,18295V,S N MIN AN AOIRE,AN CHARRAIG,CO DHUN NA NGALL,,,Donegal,CATHOLIC,N,Y,Y,10,14,24,160960.0,384040.0,-8.60565,54.7028,Mixed
698,18319J,S N TRIANTA,TRIANTAGH,LETTERKENNY,CO DONEGAL,,Donegal,PRESBYTERIAN,N,N,N,7,8,15,210133.0,416800.0,-7.84165,54.9986,Mixed
699,18371L,SCOIL MHUIRE,AN CRAOSLOCH,LETTERKENNY,CO DONEGAL,,Donegal,CATHOLIC,N,Y,N,48,48,96,205657.0,430812.0,-7.91132,55.1245,Mixed
700,18421A,SN DUN CEANNFHAOLAIDH,DUN CEANNFHAOLAIDH,CO DONEGAL,,,Donegal,CATHOLIC,N,Y,N,48,44,92,177134.0,376094.0,-8.35412,54.6324,Mixed
701,18446Q,SCOIL NAOMH MHUIRE,CEANN MHALANNA,BALLYGORMAN LIFFORD,CO DONEGAL,,Donegal,CATHOLIC,N,Y,N,32,33,65,247429.0,450440.0,-7.25322,55.2986,Mixed
702,18508M,NAOMH ADHAMHNAIN,LAGHEY PO,DONEGAL,CO DONEGAL,,Donegal,CATHOLIC,N,N,N,18,24,42,194299.0,374534.0,-8.08826,54.6189,Mixed
703,18517N,SCOIL MHUIRE,DRISTEARNAIN,GLENEELY PO LIFFORD,CO DONEGAL,,Donegal,CATHOLIC,N,Y,N,53,33,86,254045.0,444198.0,-7.15026,55.2418,Mixed
704,18520C,SCOIL PHADRAIG,RATH SEINCHE,CLONMANY,CO DONEGAL,,Donegal,CATHOLIC,N,N,N,76,77,153,241412.0,448282.0,-7.348269999999999,55.2797,Mixed
705,18605K,SCOIL NAOMH PADRAIG BOYS,CARNDONAGH,CO DONEGAL,,,Donegal,CATHOLIC,N,Y,N,178,0,178,246665.0,444987.0,-7.26615,55.2497,Male
706,18611F,S N NA CARRAIGE,DUN NA NGALL,CO DHUN NA NGALL,,,Donegal,CATHOLIC,N,Y,Y,56,54,110,159260.0,379082.0,-8.63133,54.6582,Mixed
707,18625Q,SCOIL CHOILMCILLE,CONVENT ROAD,LETTERKENNY,CO DONEGAL,,Donegal,CATHOLIC,N,N,N,412,0,412,216474.0,411436.0,-7.74286,54.9502,Male
708,18652T,S N AN CHAISEAL,GLEANN CHOLMCILLE,CO DHUN NA NGALL,,,Donegal,CATHOLIC,N,Y,Y,35,30,65,153350.0,384527.0,-8.72378,54.7066,Mixed
709,18700E,S N BAILE AN CAISLEAN,BAILE AN CHAISLEAIN,ST JOHNSTON LIFFORD,CO DONEGAL,,Donegal,CHURCH OF IRELAND,N,N,N,15,15,30,232797.0,408120.0,-7.4884699999999995,54.9196,Mixed
710,18703K,S N BAILE AN BHAILSIG,BAILE AN BHAILSIGH,WELCHTOWN,BALLYBOFEY,CO DONEGAL,Donegal,CHURCH OF IRELAND,N,N,N,17,9,26,208751.0,396560.0,-7.863860000000001,54.8167,Mixed
711,18710H,SN NA CROISE NAOFA,DUNFANAGHY,CO DONEGAL,,,Donegal,CATHOLIC,N,Y,N,22,19,41,201592.0,437114.0,-7.97501,55.1811,Mixed
712,18731P,ROBERTSON N S,BALLYBOFEY P O,LIFFORD,CO DONEGAL,,Donegal,CHURCH OF IRELAND,N,N,N,18,20,38,215294.0,395332.0,-7.76213,54.8056,Mixed
713,18737E,SCOIL BHRIDE,CONMHAGH,LIFFORD,CO DONEGAL,,Donegal,CATHOLIC,N,N,N,106,87,193,221226.0,401567.0,-7.66942,54.8614,Mixed
714,18766L,SCOIL CHOLMCILLE,DUBHLIN RIABACH,CARRAIG AIRT,CO DHUN NA NGALL,,Donegal,CATHOLIC,N,Y,Y,35,27,62,216944.0,435672.0,-7.734089999999999,55.1679,Mixed
715,18791K,SCOIL CHOLMCILLE,DROIM AN MHAOIR,MOVILLE,CO DONEGAL,,Donegal,CATHOLIC,N,N,N,52,64,116,264851.0,440154.0,-6.981310000000001,55.2042,Mixed
716,18844F,Scoil Mhuire,BELCRUIT,KINCASSLAGH,LETTERKENNY,CO. DONEGAL,Donegal,CATHOLIC,N,N,Y,25,25,50,174666.0,418986.0,-8.39609,55.0177,Mixed
717,18874O,KILLYGORDAN N S,Main Street,Killygordon,Lifford,Co. Donegal,Donegal,CHURCH OF IRELAND,N,N,N,8,13,21,220268.0,394395.0,-7.6848399999999994,54.797,Mixed
718,18939Q,S N DONAIGH,CARNDONAGH,CO DONEGAL,,,Donegal,CHURCH OF IRELAND,N,N,N,17,6,23,246037.0,444118.0,-7.27617,55.2419,Mixed
719,19009W,CRAANFORD N S,CRAANFORD,CO DONEGAL,,,Donegal,CATHOLIC,N,Y,N,23,13,36,219371.0,432390.0,-7.696219999999999,55.1383,Mixed
720,19089A,KILLAGHTEE N S,KILLAGHTEE,DUNKINEELY,CO DONEGAL,,Donegal,CHURCH OF IRELAND,N,N,N,15,25,40,176088.0,376084.0,-8.37032,54.6323,Mixed
721,19228L,S N NAOMH BRID,NA DUNAIBH,LEITIR CEANAINN,CO DHUN NA NGALL,,Donegal,CATHOLIC,N,Y,Y,40,45,85,211330.0,438653.0,-7.82207,55.1948,Mixed
722,19235I,PORTLEAN N S,KILMACRENNAN,LETTERKENNY,CO DONEGAL,,Donegal,CHURCH OF IRELAND,N,N,N,17,10,27,217338.0,423476.0,-7.72865,55.0583,Mixed
723,19252I,S N UMLACH,CARRIGART,CO DONEGAL,,,Donegal,CATHOLIC,N,Y,N,49,50,99,212710.0,435874.0,-7.80053,55.1698,Mixed
724,19260H,S N CHOLMCILLE,BAILE NA FINNE,CO DHUN NA NGALL,,,Donegal,CATHOLIC,N,N,Y,27,32,59,192542.0,402484.0,-8.11618,54.87,Mixed
725,19280N,SCOIL NAOMH BRID,MUFF,LIFFORD,CO DONEGAL,,Donegal,CATHOLIC,N,N,N,118,115,233,246711.0,425364.0,-7.268660000000001,55.0734,Mixed
726,19310T,SCOIL NAOMH EARNAN,BAILE AN TSRATHA,CO DONEGAL,,,Donegal,CATHOLIC,N,Y,N,62,39,101,192311.0,370639.0,-8.11894,54.5839,Mixed
727,19313C,GLENSWILLY N S,NEWMILLS,LETTERKENNY,CO DONEGAL,,Donegal,CATHOLIC,N,N,N,159,100,259,209709.0,409824.0,-7.848510000000001,54.9359,Mixed
728,19333I,DOOISH N S,BALLYBOFEY,CO DONEGAL,,,Donegal,CATHOLIC,N,N,N,119,95,214,210029.0,395732.0,-7.844010000000001,54.8093,Mixed
729,19343L,S N DHUBHTHAIGH,ANAGAIRE,LEITIR CEANAINN,CO DHUN NA NGALL,,Donegal,CATHOLIC,N,Y,Y,52,61,113,180401.0,419376.0,-8.306460000000001,55.0214,Mixed
730,19359D,S N NAOMH AONGHUS,BRIDGEND,LIFFORD,CO DONEGAL,,Donegal,CATHOLIC,N,N,N,114,78,192,239527.0,421175.0,-7.381710000000001,55.0364,Mixed
731,19411C,S N BAILE RAIGHIN,LETTERKENNY,CO DONEGAL,,,Donegal,CHURCH OF IRELAND,N,N,N,100,105,205,218468.0,411591.0,-7.71173,54.9515,Mixed
732,19491D,SCOIL MHUIRE,RATHMEALLTAIN,CO DHUN NA NGALL,,,Donegal,CATHOLIC,N,Y,N,89,104,193,222454.0,420742.0,-7.6488,55.0336,Mixed
733,19518U,S N NAOMH BAOITHIN,SC NAOMH BAOITHIN,ST JOHNSTON,LIFFORD,CO DONEGAL,Donegal,CATHOLIC,N,Y,N,66,53,119,234489.0,409623.0,-7.4619,54.933,Mixed
734,19614Q,NAOMH BODAIN,CULDAFF,LIFFORD,CO DONEGAL,,Donegal,CATHOLIC,N,Y,N,45,30,75,252976.0,448984.0,-7.1661600000000005,55.2849,Mixed
735,19633U,MOYLE N S,MOYLE NS,NEWTOWNCUNNINGHAM,LIFFORD CO DONEGAL,,Donegal,PRESBYTERIAN,N,N,N,31,59,90,230038.0,416933.0,-7.5305800000000005,54.9989,Mixed
736,19685Q,SCOIL CHARTHA NAOFA,CHILL CHARTHA,CO DHUN NA NGALL,,,Donegal,CATHOLIC,N,Y,Y,61,65,126,161931.0,376628.0,-8.58962,54.6363,Mixed
737,19686S,ST MACARTANS CENTRAL,BUNDORAN,CO DONEGAL,,,Donegal,CATHOLIC,N,N,N,133,134,267,181791.0,358628.0,-8.28092,54.4757,Mixed
738,19756N,ST CONALS,NARIN,PORTNOO,CO DONEGAL,,Donegal,CATHOLIC,N,Y,N,44,42,86,171447.0,397951.0,-8.44433,54.8285,Mixed
739,19912B,SCOIL MHUIRE,GLENTIES,CO DONEGAL,,,Donegal,CATHOLIC,N,Y,N,59,63,122,182107.0,394138.0,-8.278210000000001,54.7947,Mixed
740,19927O,SCOIL MHUIRE B & C,STRANORLAR,CO DONEGAL,,,Donegal,CATHOLIC,N,N,N,254,214,468,214462.0,394986.0,-7.77509,54.8025,Mixed
741,19959E,SCOIL NAOMH FIONAN,WHITECASTLE,QUIGLEYS POINT,CO DONEGAL,,Donegal,CATHOLIC,N,N,N,142,140,282,252515.0,432887.0,-7.176410000000001,55.1404,Mixed
742,19963S,SCOIL AODH RUA&NUALA,DUN NA NGALL,CO DONEGAL,,,Donegal,CATHOLIC,N,N,N,132,105,237,193572.0,378512.0,-8.0996,54.6546,Mixed
743,19967D,SCOIL IOSAGAIN,BUNCRANA,CO DONEGAL,,,Donegal,CATHOLIC,N,N,N,359,349,708,234654.0,431899.0,-7.4566300000000005,55.1331,Mixed
744,19971R,GAELSCOIL ADHAMHNAIN,GLEANN CEARRA,LEITIR CEANAINN,CO  DHUN NA NGALL,,Donegal,CATHOLIC,N,N,N,213,203,416,216070.0,412189.0,-7.74913,54.957,Mixed
745,20054L,SCOIL EOGHAN,MOVILLE,CO DONEGAL,,,Donegal,CATHOLIC,N,Y,N,115,110,225,261296.0,438590.0,-7.03748,55.1906,Mixed
746,20096E,GAELSCOIL NA GCEITHRE MAISTRI,BAILE DUN NA NGALL,CO DUN NA NGALL,,,Donegal,INTER DENOMINATIONAL,N,N,N,58,35,93,193826.0,377199.0,-8.09564,54.6428,Mixed
747,20097G,GAELSCOIL BHUN CRANNACH,BUN CRANNACH,DHUN NA NGALL,,,Donegal,INTER DENOMINATIONAL,N,N,N,102,91,193,234472.0,432408.0,-7.45942,55.1377,Mixed
748,20144M,GAELSCOIL CHOIS FEABHAILL,GAA,BUN AN PHOBAIL,CO DHUN NA NGALL,,Donegal,CATHOLIC,N,N,N,34,28,62,262291.0,439052.0,-7.0217600000000004,55.1946,Mixed
749,20150H,HOLY FAMILY NATIONAL SCHOOL,THE ROCK,BALLYSHANNON,CO DONEGAL,,Donegal,CATHOLIC,N,N,N,68,76,144,187673.0,361182.0,-8.19028,54.4988,Mixed
750,20167B,GAELSCOIL EIRNE,FEARAINN AN BHAILE,BEAL ATHA SEANNAIGH,CO DHUN NA NGALL,,Donegal,INTER DENOMINATIONAL,N,N,N,37,38,75,187752.0,361745.0,-8.18909,54.5039,Mixed
751,20235P,LETTERKENNY EDUCATE TOGETHER,BALLYRAINE HALLS,LETTERKENNY,CO DONEGAL,,Donegal,MULTI DENOMINATIONAL,N,Y,N,98,98,196,218620.0,411643.0,-7.70935,54.952,Mixed
752,20421M,Scoil Chróine,An Clochán Liath,Co. Dhún na nGall,,,Donegal,CATHOLIC,N,N,Y,147,126,273,177177.57,411322.46,-8.35622,54.9489,Mixed
753,00752A,CENTRAL SENIOR MXD N S,MARLBORO ST,DUBLIN 1,,,Dublin,CATHOLIC,N,Y,N,100,108,208,316182.0,234864.0,-6.25505,53.3512,Mixed
754,01795A,CENTRAL INFS SCHOOL,MARLBORO ST,DUBLIN 1,,,Dublin,CATHOLIC,N,Y,N,75,89,164,316191.0,234838.0,-6.254919999999999,53.351000000000006,Mixed
755,03917V,NAOMH PADRAIG BOYS,CAMBRIDGE ROAD,RINGSEND,DUBLIN 4,,Dublin,CATHOLIC,N,Y,N,119,0,119,318248.0,234019.0,-6.22435,53.3432,Male
756,04992R,SCOIL AN CROI NAOFA,GLASNEVIN,DUBLIN 11,,,Dublin,CATHOLIC,N,N,N,453,0,453,314874.0,238474.0,-6.27337,53.3839,Male
757,05933G,PRESENTATION PRIMARY SCHOOL,GEORGES HILL,DUBLIN 7,,,Dublin,CATHOLIC,N,Y,N,50,126,176,315140.0,234486.0,-6.27083,53.3481,Mixed
758,07546J,GOLDENBRIDGE CONVENT,GOLDENBRIDGE,INCHICORE,DUBLIN 8,,Dublin,CATHOLIC,N,Y,N,138,129,267,312021.0,233117.0,-6.31813,53.3364,Mixed
759,09750S,ST JOSEPHS BOYS N S,TERENURE,DUBLIN 6,,,Dublin,CATHOLIC,N,N,N,480,0,480,314560.0,230169.0,-6.28109,53.3094,Male
760,09932B,STANHOPE ST CONVENT,STANHOPE STREET,DUBLIN 7,,,Dublin,CATHOLIC,N,Y,N,85,261,346,314534.0,234953.0,-6.27975,53.3524,Mixed
761,10653E,CHAPELIZOD N S,CHAPELIZOD,DUBLIN 20,,,Dublin,CHURCH OF IRELAND,N,N,N,17,13,30,310279.0,234590.0,-6.34376,53.35,Mixed
762,11525A,ST PATRICKS N SCHOOL,DRUMCONDRA,DUBLIN 9,,,Dublin,CATHOLIC,N,N,N,484,4,488,315979.0,236945.0,-6.2573300000000005,53.37,Mixed
763,11578V,CITY QUAY BOYS N S,CITY QUAY,DUBLIN 2,,,Dublin,CATHOLIC,N,Y,N,82,79,161,316509.0,234332.0,-6.25033,53.3464,Mixed
